lng,lat,date,city,state,country,shape,duration,comments,year,month,day
-118.6275,43.6425,7/5/1929 14:00,buchanan  (or burns),or,us,disk,60,we were traveling east of burns&#44clmbing up thru a cut in the rim rocks when this object very slowely flew over the top of us&#44 some 50 f,1929,7,5
-102.3019444,40.5844444,2/15/1931 14:00,holyoke (6-8 miles southwest of),co,us,oval,60,In the winter of 1931&#44 I saw a flying machine (UFO) as I was riding on a horse in the draw of a pasture.,1931,2,15
-97.2136111,38.9172222,6/1/1931 13:00,abilene,ks,us,disk,1800,This is a what my mother related to me regarding an experience my grandparents had.  They did not tell anyone for 20 or more years beca,1931,6,1
-98.0027778,46.9233333,9/15/1934 15:30,valley city (6.5 miles east of),nd,us,disk,5,Two brothers observe&#44 hear&#44 three black discs streak overhead&#44 moving from SE to NW; below high overcast. 500 Lights On Object0: Ye,1934,9,15
-149.3622222,61.4580556,10/15/1936 17:00,eklutna,ak,us,cigar,180,Two men approached by a cigar-shaped object in the night sky.,1936,10,15
-117.4341667,34.0922222,8/15/1937 21:00,fontana,ca,us,light,600,A cylinder light came on above us with no sound .,1937,8,15
-88.0641667,34.9180556,6/1/1939 20:00,waterloo,al,us,fireball,300,4 high school students see bright&#44 ground-level&#44 slow moving fireball in the late 1930&#39s,1939,6,1
-82.4944444,34.5227778,6/30/1939 20:00,belton,sc,us,sphere,10,Dark red arched acrossed southern sky at dusk in summer of 1939.,1939,6,30
-91.3847222,40.3972222,7/7/1939 2:00,keokuk,ia,us,oval,600,Mother sees UFO above railroad tracks in 1939.,1939,7,7
-84.4102778,33.66,6/1/1942 22:30,hapeville,ga,us,unknown,180,bright object approchjng Venus&#44 1940&#39s,1942,6,1
-84.5127778,36.4980556,7/15/1942 1:00,oneida,tn,us,rectangle,120,Two children walking along highway saw unfamiliar object in sky.,1942,7,15
-117.1563889,32.7152778,1/1/1944 12:00,san diego,ca,us,cigar,180,A sighting of one silver or white enlongated cylindrical or cigar shaped craft without any visual control surfaces heading west to east,1944,1,1
-106.3063889,35.8880556,6/1/1944 12:00,los alamos,nm,us,disk,3600,Disk hovers over Los Alamos during the development of the atomic bombs; pursued by planes.,1944,6,1
-82.9483333,30.5180556,6/1/1945 13:30,jasper,fl,us,fireball,300,I belived it would be to our best Intrest to check this out .,1945,6,1
-80.2444444,36.0997222,6/7/1945 7:00,winston-salem,nc,us,disk,2,I always thought this sighting should be on an official list&#44 now&#44 60 yrs. later&#44 it is.,1945,6,7
-76.2986111,36.8352778,7/10/1945 1:30,portsmouth,va,us,formation,180,1945  RED  FLICKERING  V FORMATION  CRAFTS  MOVING  EXTREEML  FAST .,1945,7,10
-120.6155556,39.7811111,6/30/1946 19:00,blairsden,ca,us,sphere,10,Looked up and saw sphere or disk 30-50 feet in diameter which was white or pale green in color.,1946,6,30
-70.2413889,43.6413889,7/1/1946 13:30,south portland,me,us,oval,10,motionless&#44 dark oblong&#44 noon sky over ocean&#44 felt Energy-Pull of Observing craft; when spotted&#44accelerated straight upwards fast,1946,7,1
-114.3613889,32.7552778,9/30/1946 20:30,dome,az,us,flash,40,observed sudden&#44very bright flash of light from large &#44flying object that appeared to be on fire.,1946,9,30
-76.1477778,43.0480556,2/20/1947 22:15,syracuse,ny,us,disk,360,1947-Chance observation of night sky reveals many UFO&#39s traversing upper atmosphere....,1947,2,20
-81.6955556,41.4994444,6/1/1947 2:30,cleveland,oh,us,light,300,It was about 2:15 in the morning when my wife woke me from a deep sleep and began to complain of stomach problems. As I was getting out,1947,6,1
-79.8425,40.5216667,6/13/1947 20:18,oakmont,pa,us,unknown,600,a very brillant blue-white object coming towards us lowering above us and hovering over us a few minutes before shooting straight up,1947,6,13
-114.1352778,42.5963889,7/15/1947 15:00,hazelton (northeast of),id,us,disk,600,The Object was Huge&#44Saucer-shaped&#44beautiful silver&#44no sound&#44no exhaust-No lights as it was early afternoon.,1947,7,15
-89.6852778,36.8472222,7/15/1947 21:00,morehouse,mo,us,cylinder,1140,Looked like airplanes without windows&#44  wings&#44 or tails.,1947,7,15
-74.1316667,44.3294444,8/12/1947 22:00,saranac lake,ny,us,disk,360,6-7 Disc shaped objects.  ((REPORT FROM:  BRIAN VIKE&#44 BRITISH COLUMBIA&#44 CANADA.)),1947,8,12
-101.3969444,35.6677778,6/15/1948 16:00,borger,tx,us,disk,10,Dull silver disk flying west at incredible speed making no sound above swimmers in pool.,1948,6,15
-76.6125,39.2902778,6/30/1948 0:00,baltimore,md,us,oval,8,Two UFO&quot;S  in flight over Baltimore leaving trails no sound that influence me.,1948,6,30
-119.2419444,34.4480556,7/15/1948 22:00,ojai,ca,us,light,900,UFO sighting in Ojai&#44 CA in 1948,1948,7,15
-122.5438889,37.9061111,8/15/1949 21:00,mill valley,ca,us,light,60,3 lights appeared&#44 manuevering rapidly and at impossible flight angles&#44 changing formation until winking out after little more than a m,1949,8,15
-86.7727778,33.5833333,8/15/1949 22:00,tarrant city,al,us,circle,600,Glowing large orange ball in Alabama sky August&#44 1949.,1949,8,15
-77.0766667,39.0255556,6/7/1950 20:00,kensington,md,us,oval,600,Reflective oval seen hovering over Washington D.C.,1950,6,7
-85.6797222,30.7916667,6/15/1950 20:00,bonifay (near),fl,us,disk,10,The objects were discs&#44 white&#44 and I estimate were moving around 100 mph in a southerly direction.,1950,6,15
-88.5666667,34.6580556,6/20/1950 10:00,booneville,ms,us,disk,4,Youngster observes shiny disc-shaped craft,1950,6,20
-82.5188889,37.4791667,10/1/1950 11:00,pikeville,ky,us,disk,600,SEVENTY SOME  FLYING DISK OBSERVED IN  1950,1950,10,1
-122.4275,37.4636111,12/12/1950 22:00,half moon bay,ca,us,other,600,3 blips on a military radar screen flew off the radar screen when military aircraft  approached them.,1950,12,12
-86.8025,33.5205556,6/30/1951 19:00,birmingham,al,us,unknown,3,I was suddenly aware of most of the sky being filled with a white light. No sound. It moved away quickly (one to three seconds) with no,1951,6,30
-118.1844444,33.9866667,6/15/1952 23:00,maywood,ca,us,circle,300,7 balls of *orange moon* lights in 2 V formations observed for 3 to 5 minutes until all sped off in 7 differen directions,1952,6,15
-84.5555556,42.7325,6/21/1952 22:00,lansing (few miles northwest of&#44 in the country),mi,us,other,2,It was like a star that moved&#44 it was 1952 before there was any space traffic or objects and was not an aircraft.,1952,6,21
-122.2272222,47.3075,6/30/1952 18:30,auburn,wa,us,oval,60,Early nighttime sighting of huge oval object for 1 minute.,1952,6,30
-80.1938889,25.7738889,6/30/1952 21:00,miami,fl,us,disk,18000,No one is able to believe,1952,6,30
-118.2616667,33.78,7/15/1952 12:00,wilmington,ca,us,disk,120,Three flying saucers suddenly appeared  in the sky&#44 hovered&#44 darted forwarded&#44 hovered&#44 then disappeared.,1952,7,15
-88.7552778,34.0016667,7/22/1952 9:30,okolona,ms,us,oval,300,Oval UFO paces occupants in automobile for 5 minutes on major highway,1952,7,22
-71.4741667,41.9697222,7/30/1952 15:00,manville,ri,us,sphere,10,Group of lights moving across sky during daylight hours.,1952,7,30
-82.4586111,27.9472222,8/1/1952 21:30,tampa,fl,us,oval,9000,Triangulation radar fix (USAF&#44 civil&#44 Navy).  I ordered intercept by SAC B-29.  B-29 tracked object. Central fire control system locked,1952,8,1
-75.1641667,39.9522222,9/9/1952 20:00,philadelphia,pa,us,circle,180,saucers in a line over Phila Pa.,1952,9,9
-119.2833333,46.2858333,10/15/1952 21:00,richland,wa,us,circle,5,Night sighting of seven large luminous UFOs flying in &quot;V&quot; formation,1952,10,15
-87.65,41.85,12/6/1952 19:00,chicago,il,us,other,45,Radar siting near Chicago- Dec. 1952. Object moved about 10 miles per second.,1952,12,6
-81.6955556,41.4994444,6/30/1953 0:00,cleveland,oh,us,fireball,35,The object came from the north from Canada meteor shaped fire ball with crackling sounds and a little tail and sparks glowing red and o,1953,6,30
-86.7844444,36.1658333,7/15/1953 13:00,nashville,tn,us,cylinder,300,cylindrical object &quot;examining&quot; trees,1953,7,15
-90.3311111,38.7544444,8/1/1953 12:00,berkeley,mo,us,fireball,300,Early 50&#39s sighting in Berkeley&#44 Missouri,1953,8,1
-121.6597222,40.8825,2/15/1954 19:30,burney,ca,us,disk,1800,Observance of one large and two smaller UFOs in a comparitive prolonged period of time.,1954,2,15
-91.4097222,39.9355556,5/26/1954 4:30,quincy (rural),il,us,disk,7,Saucer shaped object with lights and a dome seen near Quincy&#44 Il.,1954,5,26
-76.8233333,42.6763889,6/1/1954 6:00,ovid,ny,us,disk,600,I saw two silver/gray objects of different shapes.,1954,6,1
-122.3105556,37.9158333,6/1/1954 19:00,el cerrito,ca,us,light,300,It was a Sunday evening and must have been in November of Decemberme to Berkeley because it was dark and I needed to be in Berkeley for,1954,6,1
-75.46,39.8005556,6/15/1954 11:45,claymont,de,us,disk,10,It was just before noon on a warm sunny  June day&#44 I was 16 yrs old. Riding in the car with my brother-inlaw driving&#44 my sister riding,1954,6,15
-122.0638889,37.9063889,7/7/1954 20:00,walnut creek,ca,us,unknown,300,I have not reported this before. I feel it should be recorderd somewhere. My friend and I used to take time-lapse photos of the stars a,1954,7,7
-85.7694444,39.785,7/15/1954 14:00,greenfield (rural area&#44 6 miles so.),in,us,cigar,300,This all occured when I was still a child and living on a farm. My mother&#44 our next door neigbor&#39s wife&#44 and myself&#44 were standing outs,1954,7,15
-73.4458333,40.7325,8/1/1954 12:00,farmingdale,ny,us,oval,1800,Sphere  -30 min. - Stationary&#44 bright object over Jet Factory  -1954,1954,8,1
-76.8536111,41.6563889,8/1/1954 21:00,canton,pa,us,disk,30,Large&#44 silver-blue disc shaped oject which gave off high pitched sound and was slowly turning on its axis and then suddenly sped away.,1954,8,1
-122.2916667,47.1855556,8/15/1954 21:00,puyallup,wa,us,oval,2,The object was hovering above the treetops over the road a short distance in front of my car...,1954,8,15
-94.1016667,30.0858333,9/9/1954 12:30,beaumont,tx,us,disk,300,Aprox. 30 Disk shaped UFOs fell out of clouds got in V formatin  and shot toward a black rain cloud avoiding a Jet Plane.,1954,9,9
-74.0647222,40.3469444,12/15/1954 23:10,red bank,nj,us,circle,300,Bright orange light&#44 about the size of a pea at arms length&#44 moving slowly from the west to NE.  I was a soldier&#44 stationed at Ft. Monm,1954,12,15
-81.0230556,29.2105556,6/15/1955 21:00,daytona beach,fl,us,fireball,120,Three fireballs moved slowly along the beach&#44 then suddenly accelerated and flew straight up into the night sky and disappeared.,1955,6,15
-74.2130556,39.5975,6/23/1955 7:00,beach haven park,nj,us,disk,60,3 women hanging clothes saw a UFO come down over bay&#44 hover for 30 sec.&#44then take off so fast it seemed to disappear.,1955,6,23
-101.8547222,33.5777778,6/30/1955 13:00,lubbock,tx,us,cigar,120,Cigar shaped cloud and left very fast.,1955,6,30
-101.9727778,35.8655556,6/30/1955 21:00,dumas,tx,us,light,600,1955 - Air Force jets pursue lights over small Texas community.,1955,6,30
-94.4152778,39.0911111,8/8/1955 1:00,independence,mo,us,fireball,300,Flaming ball of light making right angle turns seen from front porch on a hot summer&#39s night.,1955,8,8
-76.7794444,39.0066667,3/20/1956 20:00,bowie,md,us,disk,900,Unusual object seen from different viewpoints.,1956,3,20
-96.6780556,34.7744444,5/17/1956 10:22,ada,ok,us,circle,20,This was a result of a prayer or telepathic request.  Seti is a load of crap.,1956,5,17
-90.0488889,35.1494444,6/1/1956 20:00,memphis,tn,us,cylinder,900,Object was glowing dull orange bent cylinder. Hovered noiselessly over RR tracks for a time&#44 then took off straight up.,1956,6,1
-81.5191667,41.0813889,6/6/1956 22:00,akron,oh,us,other,30,Akron Ohio&#44 1956&#44 Bright object similar to flying wing. 10 pm. See full description.,1956,6,6
-122.1419444,37.4419444,6/15/1956 18:00,palo alto,ca,us,fireball,600,Fireball landing&#44 and when inspection attempted&#44 retreating.,1956,6,15
-84.4569444,39.1619444,6/16/1956 13:00,cincinnati,oh,us,disk,1200,glass like&#44you could see threw&#44craft was 20 feet in front of me&#44as i stepped closer&#44 a ramp out of the side of the craft opened up and,1956,6,16
-120.0597222,36.9613889,6/24/1956 14:00,madera,ca,us,sphere,120,Half spherical object with portholes on the side.  Mid 1950&#39s in Central California.  Day time.,1956,6,24
-89.5180556,37.3058333,6/30/1956 13:00,cape girardeau,mo,us,diamond,300,Angular UFO sighted as a child,1956,6,30
-86.085,32.9947222,8/1/1956 0:00,bradford,al,us,sphere,20,moving sparkling white/ yellowish/orange/flat black sphere paused 20 feet over my head,1956,8,1
-93.5913889,33.6669444,9/20/1956 16:00,hope,ar,us,circle,1200,Sitting on a pond bank on sunny afternoon when 9 saucers appeared at 12:00 o&#39clock at a very high altitude.  They were silver in color,1956,9,20
-82.9988889,39.9611111,12/1/1956 23:00,columbus,oh,us,formation,240,A &quot;V&quot;  shape set of lights either on one large&#44 silent aircraft&#44 or 5 different aircraft flying in formation. No noise heard.,1956,12,1
-118.2427778,34.0522222,3/15/1957 15:00,los angeles,ca,us,disk,900,There were about 5-7 saucers&#44 gray color in a V shape form&#44 a mass sighting of about 200 or more people.,1957,3,15
-73.9130556,41.9266667,5/25/1957 13:00,rhinebeck,ny,us,diamond,20,KITE SHAPED OBJECT CHANGED 3 COLORS AND JIGGED UP AND DOWN WHILE FLASHING&#44 VERY&#44 VERY BRIGHT.,1957,5,25
-70.1886111,44.4752778,6/14/1957 10:00,livermore falls,me,us,diamond,300,A recalled childhood event,1957,6,14
-93.1336111,35.2783333,6/30/1957 18:00,russellville,ar,us,sphere,600,Huge orange ball floating over Russellville&#44 Arkansas&#44 in late 50s.,1957,6,30
-80.7544444,37.6513889,7/1/1957 13:00,talcott,wv,us,sphere,15,A sphere that looked like a white light came across the horizon from West to East&#44 an Air Force Jet followed about 3-4 sec later.,1957,7,1
-118.0569444,34.1072222,7/15/1957 12:00,temple city,ca,us,light,900,Lights over Mt Baldy California 1957 as seen by ten honest men,1957,7,15
-118.1883333,33.7669444,7/15/1957 15:00,long beach,ca,us,disk,120,Three disks stationary in a triangle formation during the day surrounded by a mirage effect seemingly caused by heat.,1957,7,15
-98.5891667,33.1069444,9/1/1957 16:00,graham,tx,us,sphere,30,Three shiny spheres over Graham Texas,1957,9,1
-93.0930556,44.9444444,10/5/1957 19:00,st. paul,mn,us,light,45,A bright light was apparently chased by several military jets.,1957,10,5
-73.1861111,44.4913889,4/17/1958 21:30,winooski,vt,us,oval,5400,object hovered&#44 landed then left headed north traveling at 60Kmph&#44 being tracked across USA by several radar sites.,1958,4,17
-98.3416667,40.925,6/1/1958 22:30,grand island,ne,us,circle,180,Hovering craft 60-75&#39 over roadway,1958,6,1
-90.8227778,29.7955556,6/30/1958 23:00,thibodaux,la,us,fireball,90,Historical Sighting  I have related this many times&#44 but never committed it to writing until now. I was motivated to write this by the,1958,6,30
-122.5686111,38.1075,7/15/1958 17:30,novato,ca,us,disk,90,saw saucer in large grass field it took off straight over vehicle went into sky and dissappeared,1958,7,15
-70.3222222,43.5780556,8/8/1958 15:00,scarborough,me,us,disk,600,I was a young girl around 1958 when I saw a saucer-shaped craft on the ground in daylight resting between two sets of power lines,1958,8,8
-83.7133333,33.7947222,8/15/1958 14:00,monroe,ga,us,oval,120,OVAL SHAPE SEEN IN OR AROUN 08/1958 IN MONROE GA,1958,8,15
-97.2177778,47.1041667,9/7/1958 19:00,arthur,nd,us,unknown,900,Two lights of alternating color traveling and stopping at unexplainable rates of speed.,1958,9,7
-121.1766667,44.3530556,10/25/1958 20:00,terrebonne,or,us,unknown,120,Piercing&#44 shrill tone.,1958,10,25
-74.6011111,40.7758333,4/15/1959 21:00,mendham,nj,us,disk,300,A saucer-shaped UFO hovered at eye-level about fifty feet away for five minutes&#44 then took off at great speed.,1959,4,15
-122.2941667,37.9772222,5/5/1959 9:00,el sobrante,ca,us,circle,120,Bright&#44 yellow/orange circle&#44 10 ft. in diameter&#44 silent&#44 slow moving&#44 5mph&#44 50 ft. above ground-2 minutes&#44 chased &amp; threw rocks at it.,1959,5,5
-87.69,42.0411111,5/15/1959 4:00,evanston,il,us,unknown,1200,Distant craft in the same part of the sky for 3 nights&#44 seen by a group,1959,5,15
-83.3977778,41.9163889,6/10/1959 13:00,monroe,mi,us,unknown,1800,Observed three very high flying  objects fly at unusual maneuvers,1959,6,10
-121.9488889,37.2872222,6/15/1959 10:00,campbell,ca,us,disk,720,3 glowing disc shaped objects,1959,6,15
-74.0063889,40.7141667,6/30/1959 20:00,new york city (bronx),ny,us,oval,1200,My husband and I didn&#39t believe in UFO&#39s until we actually saw one&#33,1959,6,30
-118.1883333,33.7669444,7/7/1959 23:00,long beach,ca,us,light,45,As a young man&#44 I would lay out in the yard at night and look at the sky--I often saw an object moving at night speed&#44 very high&#44 no no,1959,7,7
-73.6922222,42.7283333,8/13/1959 21:00,troy,ny,us,unknown,900,Single star like light zigging and zagging in night sky,1959,8,13
-117.2347222,37.7086111,9/15/1959 1:00,goldfield,nv,us,light,60,The object hovered over the pick-up&#44 and raised it from the sand,1959,9,15
-82.1886111,36.5963889,1/15/1960 22:00,bristol,va,us,disk,1200,BURNING disc  sighting 1960,1960,1,15
-80.2444444,36.0997222,2/18/1960 21:00,winston-salem,nc,us,cigar,20,It was on a Full Moonlit night&#44 while snowsledding&#44 a friend called to me and said &#44 &quot;look Bill&#44 what in the world is that?&quot;,1960,2,18
-121.4933333,38.5816667,6/1/1960 12:00,sacramento,ca,us,cigar,300,Brother sees ship and occupants...maybe more.......,1960,6,1
-94.6272222,39.1141667,6/15/1960 21:45,kansas city,ks,us,disk,900,Short visit&#33,1960,6,15
-87.65,41.85,6/18/1960 23:00,chicago,il,us,oval,3,AS I LYE IN THE NIGHT&#44 MY EYES FOCUSED ON HEAVEN&#44 FIVE DISCS SILENTLY PASSED OVER SOMETIME ROUND ELEVEN. THESE OVAL SHAPED OBJECTS GAVE,1960,6,18
-122.675,45.5236111,7/1/1960 20:00,portland,or,us,unknown,1800,Stationary Lights Over Portland OR Around 1960,1960,7,1
-88.1083333,42.9763889,7/4/1960 21:30,new berlin,wi,us,circle,300,Large&#44 slow moving craft&#44 above the clouds&#44 blinked out like a lightbulb before reaching the horizon,1960,7,4
-117.7669444,34.1008333,7/15/1960 1:00,la verne,ca,us,circle,1800,July 1960&#44 Pomona Ca&#44  two yellowish orange spheres observed by numerous people that reported to the local paper.,1960,7,15
-71.0602778,42.3583333,8/1/1960 18:00,boston,ma,us,disk,1800,Observed strange large disk like craft.,1960,8,1
-74.2286111,40.5772222,8/1/1960 18:00,carteret,nj,us,cigar,600,Cigar shapped object made no sounds&#44 moved slowly overhead and then with tremendous speed vanished,1960,8,1
-118.1883333,33.7669444,8/17/1960 21:10,long beach (terminal island),ca,us,other,5,9/17/1960 -21:10 hours-Terminal Island&#44 Califronia&#44 Four  Crescent over LBNSY- observed 4-5 seconds above broken clouds,1960,8,17
-82.5619444,36.5483333,9/15/1960 19:00,kingsport,tn,us,circle,300,An orange&#44 circular craft drifted over the house from east to west shortly after sundown.,1960,9,15
-157.8036111,21.4180556,10/10/1960 20:00,kaneohe,hi,us,light,900,AS a Marine 1st Lt. flying an FJ4B fighter/attack aircraft on a solo night exercise&#44 I was at 50&#44000&#39 in a &quot;clean&quot; aircraft (no ordinan,1960,10,10
-118.1358333,34.6980556,2/2/1961 1:00,lancaster,ca,us,disk,180,Brilliant&#44silver disk. 50 to 55 degree angle of sight. Appears to be stationary in sky.Smaller object 1/8 the size of larger&#44same color,1961,2,2
-76.2011111,40.8202778,4/1/1961 20:00,shenandoah,pa,us,light,120,UFOs spotted coming from behind the moon,1961,4,1
-99.0180556,34.3919444,6/15/1961 20:30,frederick,ok,us,light,240,After sun down&#44 large bright white lightmoving westward at high altitude and speed.Two minutes after its passing&#44 a flight ofthree F-10,1961,6,15
-87.65,41.85,6/17/1961 19:00,chicago,il,us,disk,300,Disk shapped saucer over the city of Chicago.,1961,6,17
-90.3572222,38.5925,6/20/1961 0:00,webster groves,mo,us,circle,120,webster groves mo ciecular craft with a light searching the ground fifty years ago,1961,6,20
-77.2313889,39.8308333,7/15/1961 11:00,gettysburg,pa,us,cigar,18000,Rte 30 West&#44 near Belmont Rd. intersection  7/15/61 4 hours Gray metallic cigar craft on Herr property in field below hill,1961,7,15
-81.1644444,37.8952778,7/15/1961 23:00,mount hope,wv,us,unknown,1800,Object only visible as a streak of light at very high altitude traveled from horizon to horizon in a few seconds for a total of 6 times,1961,7,15
-122.5438889,37.9061111,8/1/1961 0:00,mill valley,ca,us,disk,180,Clear view of a &quot;flying saucer&quot;.,1961,8,1
-79.9677778,40.5327778,8/5/1961 21:15,glenshaw,pa,us,disk,900,2 scientists&#44 among 7 witnesses see disk hovering approximately 100 feet above neighbor&#39s home then yard.,1961,8,5
-79.9961111,40.4405556,8/5/1961 23:00,pittsburgh,pa,us,sphere,600,Orange yellow sphere size of small house hovers above trees 50 feet away from young girl on country lane,1961,8,5
-86.7844444,36.1658333,10/1/1961 19:00,nashville,tn,us,disk,1800,In October 1961&#44 a silvery flattened disk hovered motionless over a local school fair for more than 30 minutes.,1961,10,1
-97.5563889,33.5330556,12/26/1961 20:00,forestburg,tx,us,sphere,120,Round brilliant white object hovered and then slowly descended behind a hill in a remote area without making a noise.,1961,12,26
-81.7827778,24.5552778,1/1/1962 8:00,key west,fl,us,sphere,300,in the very early morning hours of 1962&#44 I don&#39t recall the date or month&#44 at the time I was only 10 years of age&#44 a very loud whistlei,1962,1,1
-114.0366667,40.7372222,3/3/1962 3:00,wendover,ut,us,disk,900,MY BROTHER IN LAW WHO IS FROM VANCOUVER BC. AND HAS DUAL PASSPORT WAS IN WEST WENDOVER FOR GAMBLING PURPOSES.HAVING BEEN IN THE US.NAVY,1962,3,3
-84.6486111,39.6288889,3/15/1962 10:00,camden,oh,us,sphere,600,Large &quot;sphere&quot; shaped object sighted hovering with an up and down motion.,1962,3,15
-96.6386111,32.9125,5/30/1962 20:00,garland,tx,us,disk,600,THE OBJECT APPEARED TO COME DIRECTLY TO MY HOUSE&#44 THEN  LEFT WITH FAST ZIG ZAG SPEED BACK TO SPACE.,1962,5,30
-95.9805556,36.7472222,6/1/1962 0:00,bartlesville,ok,us,unknown,120,Childhood visitation 1962&#44 possible implant&#44 first sighting 1977.  other sightings of craft on several occasions. 500 Lights On Obj,1962,6,1
-80.2866667,40.8616667,6/1/1962 12:00,ellwood city,pa,us,disk,60,came down never touched ground had mist like around it&#44 about 1 yard wide wide&#44 hovered off ground right where I was sitting for about,1962,6,1
-88.92,37.9966667,6/1/1962 21:30,benton,il,us,disk,900,Saucer shaped object in daytime nearly landed next to me.  When my mother ran out to me&#44 it flew away.,1962,6,1
-73.8619444,41.1627778,6/25/1962 2:00,ossining,ny,us,unknown,900,refueling in summer 62 ossining ny,1962,6,25
-115.5119444,34.52,6/30/1962 7:00,cadiz,ca,us,unknown,10,We saw a silver brushed sillhoutte about the size of a person floating about 1-2 ft above the ground with no features of any sort.,1962,6,30
-83.1447222,42.4894444,6/30/1962 17:30,royal oak,mi,us,disk,600,Ship over Royal Oak&#44 early 60s,1962,6,30
-73.4825,40.7441667,6/30/1962 18:00,bethpage,ny,us,triangle,300,While I was a young boy playing in my dads belair around 1962 or 1963. I saw multiple bright white lights traveling west to east about,1962,6,30
-122.3308333,47.6063889,7/1/1962 22:00,seattle,wa,us,other,30,randomly moving starlike shape,1962,7,1
-97.6022222,34.8347222,7/7/1962 2:00,lindsay,ok,us,cylinder,600,white beam of light and cylindrical object,1962,7,7
-149.0930556,64.5638889,8/15/1962 19:00,nenana,ak,us,oval,900,the object had a large spot light&#44 shining straight down towards the groung.,1962,8,15
-71.0777778,42.7761111,8/16/1962 12:00,haverhill,ma,us,disk,300,Two Silver Disks observed in broad daylight.,1962,8,16
-77.19,36.515,9/15/1962 14:00,severn (northhampton) (uk/england),nc,us,unknown,900,Car electrical system failed&#44 then recovered,1962,9,15
-87.65,41.85,10/15/1962 22:30,chicago,il,us,other,10,SITTING IN AVALON PARK ON A FALL NIGHT AT APP.1030 PM I SAW A METALIC OBJECT TRAVELING FROM E TO W I DIDNT GIVE IT MUCH THOUGHT BUT IT,1962,10,15
-74.0063889,40.7141667,12/21/1962 23:21,new york city,ny,us,cigar,900,the ufo I saw on dec&#44 21&#44 1962  in NYC has never appeared on any website I could find,1962,12,21
-112.0352778,46.5927778,1/1/1963 22:00,helena (near),mt,us,diamond,3600,Diamond shaped UFO blocks USAF runway,1963,1,1
-122.3394444,47.4363889,3/15/1963 13:00,normandy park,wa,us,cylinder,300,Pencil-like objects seen flying over the water.,1963,3,15
-110.9258333,32.2216667,4/1/1963 7:00,tucson,az,us,triangle,600,Observed in western sky @ about 100 ft. flying to the south at about 10 to25 mph Flying in formation as geese would fly,1963,4,1
-70.95,42.4666667,5/7/1963 3:00,lynn,ma,us,disk,21600,05/07/1965; @3:00am lynn&#44ma essex county usa; two abductees&#44 8 witnesses; two sauces&#44 1 burnt field,1963,5,7
-74.0063889,40.7141667,5/15/1963 7:00,new york city (brooklyn),ny,us,other,600,SILENT&#44 SUSPENDED WATER TOWER APPEARS OVER HOUSES IN SEA GATE&#44 BROOKLYN&#44 NEW YORK,1963,5,15
-90.1977778,38.6272222,6/1/1963 2:00,st. louis county,mo,us,cigar,300,Cigar shaped craft hovering over swimming pool&#44 March 1963&#44 02:00-03:00&#44 slits along edge of hull of craft,1963,6,1
-97.4522222,29.5013889,6/1/1963 8:30,gonzales,tx,us,cigar,30,Object was cigar shaped&#44lights along side and exremely fast.,1963,6,1
-95.3630556,29.7630556,6/1/1963 12:00,houston,tx,us,cigar,300,Cigar shaped UFO over north Houston&#44&#44  before the building of IAH.,1963,6,1
-117.7822222,33.5422222,6/1/1963 20:00,laguna beach (south),ca,us,light,120,USO(s) - Unidentified Submerged Object(s) -- yeh&#33 I know guys&#33 You probably only care about lights in the sky&#33 But hey I&#39m not the only,1963,6,1
-104.8208333,38.8338889,6/1/1963 23:00,colorado springs (mtns. nw of),co,us,disk,300,UFO hovered and made right angle turns before shooting off at an incredible rate of speed when approached by a jet.,1963,6,1
-73.0569444,41.2222222,6/15/1963 3:00,milford,ct,us,other,60,A solid black cylinder shape moving across the ground then rising like a shadow,1963,6,15
-93.3344444,38.3908333,7/1/1963 21:00,lincoln,mo,us,other,28800,Lights in the Sky? What are they and where did they c ome from? Benton County Missouri July 1&#441963,1963,7,1
-93.3344444,38.3908333,7/1/1963 21:12,lincoln,mo,us,other,28800,This report is based upon a witness who  said that a great armada of bright lights in the Benton county sky was so bright that it was l,1963,7,1
-71.0602778,42.3583333,7/17/1963 9:00,boston,ma,us,triangle,1800,It was a nice warm night to hang on the back porch.  I saw a bright triangular light in the sky&#44 very high up.  It was doing loops and,1963,7,17
-88.7033333,34.2575,7/20/1963 19:30,tupelo,ms,us,disk,3600,12 year old Girl and family sees Disc over high-power lines,1963,7,20
-122.3983333,45.5872222,8/20/1963 2:30,camas,wa,us,unknown,900,Prune Hill&#44 Camas&#44 Washington&#44 a rural area above the Columbia River and across the river from PDX--I was in bed in a daylight basement,1963,8,20
-85.1647222,34.2569444,12/10/1963 23:00,rome,ga,us,oval,1200,An unmistakable sighting of a silent craft that followed us for 3miles&#44 stopped hovered and accelerated out of sight straight up.,1963,12,10
-116.9763889,33.9725,3/29/1964 21:00,cherry valley,ca,us,circle,1200,Little girl wakes up to lights and sees UFO.,1964,3,29
-84.0638889,42.8786111,4/15/1964 20:30,bancroft,mi,us,light,1200,We were surrounded by these UFOs.,1964,4,15
-117.8894444,34.09,5/15/1964 15:00,covina,ca,us,cigar,300,SLOWLY ROTATING CIGAR SHAPED METALLIC &#44DAYLIGHT LOW ALTITUDE OBJECT,1964,5,15
-97.2688889,32.7994444,6/1/1964 4:30,haltom city,tx,us,light,600,Light beam travel across roof-tops...1964.,1964,6,1
-107.8755556,38.4783333,6/10/1964 3:00,montrose,co,us,light,420,A father and son driving to work saw intense blue light fill valley.,1964,6,10
-87.65,41.85,6/10/1964 22:00,chicago,il,us,circle,120,Disc shaped orange in color with darker crater shapes with in it,1964,6,10
-119.8127778,39.5297222,6/14/1964 13:00,reno,nv,us,disk,900,I saw a luminous object which I can only desribe as a UFO...,1964,6,14
-95.9925,36.1538889,6/15/1964 13:00,tulsa,ok,us,circle,30,While crossing the driveway of my front yard&#44 I happened to look straight up.  There was no particular reason that I have ever been abl,1964,6,15
-110.9258333,32.2216667,6/19/1964 20:00,tucson,az,us,triangle,10,Early 60&#39s Triangle Craft,1964,6,19
-84.3880556,33.7488889,6/29/1964 21:50,atlanta,ga,us,changing,900,UFO over  drive-in theatre.,1964,6,29
-89.3138889,46.8711111,6/30/1964 1:00,ontonagon,mi,us,rectangle,180,Large rectangular shape heading up River St. to Lake Superior.,1964,6,30
-87.65,41.85,7/9/1964 22:30,chicago,il,us,disk,30,Surprised by disc hovering above the highway in front of me.,1964,7,9
-122.8983333,42.8819444,7/12/1964 12:00,drew,or,us,circle,1200,Date/Time 07/1964 City: Drew State: Oregon Shape Silver(Metallic) Disc Duration 30 min Summary object hovered above work location .,1964,7,12
-79.86,40.3813889,8/1/1964 15:00,duquesne,pa,us,cigar,600,Cigar shaped silver object with varying speeds&#44 no sound heard and many witnesses.,1964,8,1
-71.6422222,41.3830556,8/1/1964 20:00,charlestown,ri,us,light,3,While camping at the Burlingame State Park&#44 Charlestown&#44 RI&#44 in August of 1964&#44 my friend&#44 Tommy&#44 and I were looking over the pond at t,1964,8,1
-71.0602778,42.3583333,8/4/1964 9:30,boston,ma,us,circle,3600,Red circle flies low over the city,1964,8,4
-88.0577778,41.1466667,8/12/1964 0:00,bonfield,il,us,diamond,10,It was in the summer my boyfriend and I where parked and we where in the country&#44and we where looking out over the corn field.I noticed,1964,8,12
-72.6125,41.7822222,9/1/1964 20:30,east hartford,ct,us,fireball,1.5,Redish-Orange object falling e to w in northern sky North of East Hartford&#44 CT,1964,9,1
-90.1527778,29.9838889,2/16/1965 21:00,metairie,la,us,circle,20,Two circular objects/craft&#44 luminous on their outer perimeters&#44 flying in a staggered formation&#44 sighted above back yard residence.,1965,2,16
-84.3538889,33.5213889,3/15/1965 14:00,jonesboro,ga,us,disk,300,flat transparent disk rolling end over end&#44 across the clear blue sky&#44 northeast to southwest,1965,3,15
-69.6322222,44.5519444,3/15/1965 17:00,waterville,me,us,egg,600,i dont remember going to my room but when i woke up i went to the site at the end of the drive hidden by the high pile of snow and ther,1965,3,15
-90.1977778,38.6272222,5/5/1965 5:35,st. louis county,mo,us,cigar,600,I was walking to church very early on the morning of May 5&#44 1965.  Cutting across the rear of the adjacent school parking lot&#44 a bright,1965,5,5
-122.3697222,40.6805556,5/31/1965 13:00,shasta lake,ca,us,disk,3600,silver disk craft  approx 40ft diam. flys over school kids  and teachersouside for school meeting and lands in back of school.,1965,5,31
-107.7580556,32.2686111,6/1/1965 5:00,deming,nm,us,disk,21600,Just a large round silver disk and acorn type craft hovering low in around the center of Deming in around 1965.,1965,6,1
-122.1233333,37.6811111,6/1/1965 21:00,san lorenzo,ca,us,light,600,Two objects rendevous at the moon.,1965,6,1
-84.4494444,33.6533333,6/6/1965 17:00,college park,ga,us,circle,240,Seeing an object close to the Atlanta Airport,1965,6,6
-98.2527778,40.5041667,6/15/1965 10:00,glenvil,ne,us,unknown,120,It was not a visual occurance but one of sound and motion.,1965,6,15
-79.765,40.5697222,6/15/1965 19:00,new kensington,pa,us,disk,10800,3 hours in a UFO,1965,6,15
-82.6794444,27.7705556,6/15/1965 20:00,st. petersburg,fl,us,unknown,30,object following an earth-orbiting satellite in the night sky.,1965,6,15
-81.2052778,39.3916667,6/15/1965 20:15,st. marys,wv,us,disk,20,White disc-shaped object witnessed in West Virgina in mid-1960s,1965,6,15
-119.2461111,35.7688889,6/15/1965 23:00,delano,ca,us,formation,900,Objects were seen at night headed towards radio free europe transmission towers.,1965,6,15
-82.1402778,29.1869444,6/30/1965 15:00,ocala,fl,us,cigar,3600,Abductioin observed by Sherif Deaputy and myself,1965,6,30
-90.075,29.9544444,7/1/1965 22:00,new orleans,la,us,unknown,60,Spec of light in sky changes course around another spec of light.,1965,7,1
-85.8055556,30.1763889,7/4/1965 19:00,panama city beach,fl,us,fireball,10800,One light over ocean became brighter as time passed.  One object became 2&#44 2 became 4&#44 etc. Then one would flash out and disappear&#44 but,1965,7,4
-87.7844444,41.885,7/7/1965 22:30,oak park,il,us,unknown,600,After hovering motionless for hours&#44 a mysterious arial light performs aerodynamically impossible maneuvers.,1965,7,7
-118.2427778,34.0522222,7/12/1965 18:30,los angeles,ca,us,cigar,15,7/12/65   Santa Monica&#44 California  Cigar shaped&#44 glowing red/orange in front&#44 blue back half    15 seconds,1965,7,12
-82.8269444,37.1183333,7/15/1965 21:00,whitesburg,ky,us,light,2700,Lights and sounds on the ground and several strange lights in a cluster,1965,7,15
-117.8669444,33.7455556,7/20/1965 20:30,santa ana,ca,us,circle,300,While driving through the intersection of 17&#39th St. &amp; Prospect Ave.&#44 in the Santa Ana/No. Tustin area just before dusk on a Summer even,1965,7,20
-82.6158333,41.2425,7/27/1965 12:30,norwalk,oh,us,light,1500,In late July&#441965&#44 my sister age 15 and myself age 18 were sitting on the front porch of our home.  I was waiting for my boyfriend to s,1965,7,27
-72.3294444,41.3158333,7/30/1965 23:00,old lyme,ct,us,oval,18000,Oval UFO hovers over neighborhood for several hours,1965,7,30
-89.7677778,39.5008333,8/1/1965 18:00,virden,il,us,sphere,10,12 year old sights Virden&#44 IL UFO,1965,8,1
-98.4933333,29.4238889,8/6/1965 1:00,san antonio (ranch outside of),tx,us,egg,900,We spotted the glowing object slowly hovering about 15 feet above the densely planted mesquite&#44 oak&#44 and huisache trees.,1965,8,6
-118.3955556,34.0211111,8/11/1965 21:00,culver city,ca,us,oval,300,UFO at Culver City Drive-in 1965.,1965,8,11
-75.9783333,36.8527778,8/12/1965 1:00,virginia beach,va,us,disk,4,My father and I saw a domed flying saucer very clear whizz directly in front of us on the oceanfront,1965,8,12
-75.0641667,42.4527778,8/15/1965 20:45,oneonta,ny,us,oval,600,Large Illuminated Oval Disk -  Oneonta NY - 1965,1965,8,15
-87.4205556,41.2913889,8/15/1965 23:59,lowell,in,us,sphere,1800,A hovering ball of white light&#44 that was able to travel quickly and turn instantaneously.,1965,8,15
-86.1580556,39.7683333,9/15/1965 15:00,indianapolis,in,us,egg,20,Zig Zagging Egg in daytime,1965,9,15
-98.7644444,38.3644444,9/15/1965 22:00,great bend,ks,us,changing,180,White cube that glowed like a lightbulb,1965,9,15
-69.6322222,44.5519444,9/27/1965 5:00,waterville,me,us,circle,300,Round blue circular object hovers and dissolves in Maine.,1965,9,27
-76.4011111,41.5241667,10/1/1965 21:00,dushore,pa,us,disk,300,It could move very slowly or very quickly but either way it moved without making any noise.,1965,10,1
-79.9961111,40.4405556,10/12/1965 12:00,pittsburgh,pa,us,circle,120,Saucer observed about 500 feet up moving into clear blue sky and flying square corners.,1965,10,12
-73.7827778,40.9113889,10/15/1965 15:00,new rochelle,ny,us,sphere,2,knew they came and went all stoped  talked to my brain or?  ((NUFORC Note:  Report from retiree.  PD)),1965,10,15
-72.3766667,41.2916667,11/9/1965 17:45,old saybrook,ct,us,light,600,Cluster of red lights hovering at low altitude without sound during Great Northeast Black-out,1965,11,9
-79.9961111,40.4405556,12/9/1965 0:00,pittsburgh,pa,us,unknown,5,HBCCUFO CANADIAN REPORT:  I Saw The Kecksberg UFO&#33,1965,12,9
-72.5922222,41.9761111,12/9/1965 16:48,enfield,ct,us,fireball,120,Giant FireBall streams across the evening sky of Enfield Connecticut&#44 was Hartford responsible&#44 was Mark Twain given a final send -off&#33,1965,12,9
-72.5922222,41.9761111,12/9/1965 17:00,enfield,ct,us,fireball,300,Possible sighting of the Kecksburg UFO,1965,12,9
-81.3580556,41.1536111,2/10/1966 18:15,kent,oh,us,disk,120,A scout ship sighting followed by a mother ship sighting that lasted well over an hour. .,1966,2,10
-83.1763889,42.3222222,3/31/1966 23:50,dearborn,mi,us,chevron,7200,Sighted&#44 followed and was followed by space craft and then had and still have lump in earlobe.,1966,3,31
-81.1636111,41.0238889,4/17/1966 5:10,atwater,oh,us,other,5400,On April 17th &#44 1966&#44 one of the greatest UFO chases occured With police  in NE Ohio and Western PA,1966,4,17
-76.9077778,39.0347222,5/5/1966 17:00,beltsville,md,us,sphere,120,Green sphere speeding across the sky in 1960&#39s,1966,5,5
-87.65,41.85,6/1/1966 12:00,chicago,il,us,disk,300,It hovered straight across from me.,1966,6,1
-94.5327778,38.8858333,6/1/1966 17:30,grandview,mo,us,triangle,900,Depressed for 40 years from this happening&#8230;,1966,6,1
-79.7066667,41.4338889,6/1/1966 21:00,oil city (near),pa,us,sphere,1800,3 spheres&#44 3 colors&#44 doing figure eight in sky. Stoped car race. everyone saw&#44 no one remembers ? Has anyone else seen this ?,1966,6,1
-82.9988889,39.9611111,6/15/1966 5:00,columbus,oh,us,circle,120,Directly overhead&#44 stationary.  Reddish-orange slowly pulsating light then moved south very rapidly.,1966,6,15
-123.3405556,43.2166667,6/15/1966 11:00,roseburg,or,us,other,3600,i saw YHVH and afterwards there apopeared a ufo in the following week that took me from a tent and tatooed me&#44 project blue book there.,1966,6,15
-123.0338889,44.9430556,6/15/1966 12:00,salem,or,us,oval,1500,The pay off could be big for a little research.,1966,6,15
-75.9272222,40.3355556,6/15/1966 15:00,reading,pa,us,sphere,20,huge molten sphere with liquid surface blending colors. Moving approx. 120 mph south to north. maybe 5000 feet. seen by six people,1966,6,15
-92.1063889,46.7833333,6/18/1966 11:00,duluth,mn,us,disk,900,Intell at Winnepeg disembark and debreif all passangers from a NW  727 after a close encounter over Lake Superior.,1966,6,18
-84.5230556,39.2680556,6/20/1966 17:00,greenhills,oh,us,disk,600,I stood under a flying saucer spotted in daylight at 40 foot distance... WILD&#33&#33&#33,1966,6,20
-85.4975,40.8830556,6/20/1966 21:00,huntington,in,us,disk,600,Saucer shaped object,1966,6,20
-87.1727778,38.6591667,6/30/1966 10:00,washington,in,us,circle,30,Small spinning circular shaped object passes between houses but doesn&#39t come down.,1966,6,30
-122.5266667,41.7283333,6/30/1966 14:00,montague,ca,us,other,600,Fast moving star object over Montague&#44 CA.,1966,6,30
-122.1780556,39.9277778,6/30/1966 16:00,corning,ca,us,disk,300,2 small (2 ft)  &amp; 1 large saucers seen at close range by multiple witnesses&#44 Northern CA about 1966,1966,6,30
-121.0758333,38.8966667,6/30/1966 23:00,auburn,ca,us,other,300,Craft was low to the ground&#44 and stopped at witnesses.,1966,6,30
-75.5247222,39.1580556,7/1/1966 0:30,dover,de,us,disk,300,In the region within an hour of Dover AFB&#44 Delaware,1966,7,1
-96.9975,32.7458333,7/1/1966 21:30,grand prairie,tx,us,other,30,Fast moving silent craft over water,1966,7,1
-81.8905556,29.6236111,7/6/1966 21:00,interlachen,fl,us,fireball,60,orange firey ball rising from ground up into sky,1966,7,6
-92.8738889,40.7341667,7/15/1966 22:00,centerville,ia,us,light,1800,90 degree angles uniform stair step flight pattern&#44 very bright light&#44 silent,1966,7,15
-82.8794444,40.0191667,7/31/1966 21:30,gahanna,oh,us,light,180,Summer of 1966&#44 a round&#44 glowing light seen in southern sky of Gahanna&#44 Ohio&#44 moving east to west.,1966,7,31
-86.2005556,42.6433333,7/31/1966 23:00,douglas,mi,us,cigar,1200,saw craft hovering over corn feild. craft had two lights(red)one pulsating no sound  also no insect of frog sounds craft left with incr,1966,7,31
-122.7133333,38.4405556,8/6/1966 1:30,santa rosa,ca,us,disk,2700,AUGUST 6&#44 1966 BETW EEN 12;30A.M.+ 1.45 A.M. MYSELF AND TO FRIENDS MY PARENTS SISTOR ALL WHERE PRESANT ONE SAUCER ABOUT A QUATER MILE A,1966,8,6
-81.6397222,39.5477778,8/17/1966 23:00,beverly,oh,us,cigar,1200,IT WAS A WARM SUMMER NIGHT.THERE WAS 6 OF US IN MY NEW COBVERTIBLE.WE WERE ALL 16-17 YRS OLD AND NO WE WERE NOT DRINKONG OR SMO,1966,8,17
-80.4591667,39.6836111,9/8/1966 20:30,hundred,wv,us,oval,30,Object traveled across hills at moderate speed illuminating tree tops as it passed.,1966,9,8
-83.5552778,41.6638889,9/15/1966 21:00,toledo,oh,us,triangle,1200,glowing orb hovers 20 feet above onlookers,1966,9,15
-118.9313889,45.1341667,10/15/1966 20:00,ukiah,or,us,oval,1200,Orange oval 40 ft in diameter&#44 twenty ft off the ground&#44 appoxumate 100 ft from me.,1966,10,15
-89.0938889,42.2711111,12/25/1966 4:00,rockford,il,us,unknown,60,Close encounter experience. 500 Lights On Object0: Yes,1966,12,25
-87.5,41.5833333,12/28/1966 19:00,hammond,in,us,triangle,60,Triangle shaped object with flashing lights&#44 Hammond Indiana ( Hessville ) 1966 or 1967,1966,12,28
-73.9875,41.2294444,2/13/1967 22:19,stony point,ny,us,unknown,180,appeared over barn with vaacum sound.     about 150 ft. long.  disappeared quietly into space,1967,2,13
-72.8075,41.5380556,2/20/1967 19:30,meriden,ct,us,unknown,360,Light on a dimmer switch,1967,2,20
-83.2786111,30.8325,4/1/1967 0:00,valdosta,ga,us,disk,180,The craft moved about in the sky just like a hummingbird or a bee. It looked to be the size of a VW Bug.,1967,4,1
-115.1363889,36.175,4/1/1967 17:45,las vegas,nv,us,light,120,pulsating white round  light that changed between white and blue,1967,4,1
-80.4777778,25.4683333,4/1/1967 21:00,homestead,fl,us,unknown,7200,Red lights along the side&#44 white light in front&#44  in a search-like pattern: slow over water&#44 very fast over land.,1967,4,1
-80.1938889,25.7738889,4/1/1967 23:00,miami (and vicinity),fl,us,other,18000,Witness tracked UFO&#39s and USAF F-4 &quot;Phantoms&quot; on radar in Florida during 1967.,1967,4,1
-84.8430556,30.705,4/25/1967 21:00,chattahoochee,fl,us,light,600,The two objects left two vapor trails with 90 degree turns in them before they simply vanished.,1967,4,25
-97.8780556,36.3955556,5/1/1967 12:00,enid,ok,us,disk,120,Proof in MY MIND&#33&#33&#33,1967,5,1
-116.5386111,34.0777778,5/15/1967 20:00,palm wells,ca,us,formation,600,small lighted spheres apparently hovering just above the ground; about a quarter mile away,1967,5,15
-106.4863889,31.7586111,5/29/1967 21:00,el paso,tx,us,light,3600,My Dad was a radar specialist.,1967,5,29
-95.2252778,41.0097222,6/1/1967 16:00,red oak,ia,us,light,20,Two unidentified extremely bright lights&#44 one large - one smaller&#44 clearly visible on a sunny clear day&#44 moving at incredible speed..,1967,6,1
-87.1833333,33.7597222,6/1/1967 18:00,cordova,al,us,disk,1200,very large craft&#44 siting dead still in mid air &#44very low and in broad daylight&#44 could see the seams in the metal,1967,6,1
-116.4313889,34.1141667,6/1/1967 22:00,yucca valley,ca,us,light,300,6 family members observe bright light for 5 minutes near Yucca Valley&#44 CA 1967,1967,6,1
-86.9833333,34.6058333,6/4/1967 20:30,decatur,al,us,light,180,Strange light shivered across sky&#44 stopped overhead&#44 tried to land&#44 stopped&#44 and then took off out of sight in 2 seconds.,1967,6,4
-73.6444444,43.3094444,6/15/1967 14:00,glens falls,ny,us,teardrop,900,Passed over our backyard,1967,6,15
-84.2697222,36.0102778,6/15/1967 19:30,oak ridge,tn,us,sphere,720,Red Sphere in Oak Ridge.,1967,6,15
-84.1741667,39.7252778,6/30/1967 3:00,oakwood (dayton),oh,us,circle,180,In the forty years since&#44 I have yet to see anything that will explain away what I witnessed in the middle of the night.,1967,6,30
-108.73,42.8330556,6/30/1967 3:00,lander,wy,us,light,600,They were just lights&#44 but very curious lights at that.,1967,6,30
-94.9,39.2486111,6/30/1967 21:00,lansing,ks,us,light,300,Silent light darts to avoid collision.,1967,6,30
-87.7877778,42.0697222,6/30/1967 22:00,glenview,il,us,circle,900,Large ball of light hovering above the road in Glenview&#44 Illinois - 25 - 30 observers - 1967 or 1968.,1967,6,30
-90.1716667,44.6688889,7/15/1967 2:00,marshfield,wi,us,disk,60,When I was a kid&#44 not unlike most&#8230; I enjoyed sleeping outdoors with my friends to watch shooting stars and satellites while gazing at t,1967,7,15
-73.0052778,40.6838889,8/1/1967 21:30,davis park,ny,us,triangle,90,3 dim lights in triangle shape&#44 about 400 ft high&#44 moved west to east slowly along S. shore of Fire Island&#44 NY,1967,8,1
-87.3769444,44.8341667,8/1/1967 21:30,sturgeon bay,wi,us,cigar,120,This has happened so long ago but the event is very clear yet.  It was an evening&#44 on the way home from watching a movie&#44 I approached,1967,8,1
-73.3261111,40.6955556,8/8/1967 11:00,babylon,ny,us,circle,120,Circular object with lights  around perimeter hovering over  witness,1967,8,8
-105.8694444,37.4694444,8/8/1967 16:00,alamosa,co,us,light,1200,Alamosa UFO disappears after flash of blinding light.,1967,8,8
-92.2894444,34.7463889,8/11/1967 19:00,little rock,ar,us,circle,120,Orange hovering object chased by Air Force jets,1967,8,11
-96.7466667,40.2680556,9/6/1967 18:00,beatrice,ne,us,disk,120,sighting of disc in Beatrice Nebraska,1967,9,6
-76.6125,39.2902778,9/7/1967 17:00,baltimore,md,us,unknown,300,Strange looking craft and possible lost time,1967,9,7
-122.7133333,38.4405556,9/15/1967 22:00,santa rosa,ca,us,circle,7,ORANGE/RED CIRCLE OR SPHERE. APPROX. - 15% TO 20% LARGER THAN FULL MOON.,1967,9,15
-93.2636111,44.98,10/1/1967 20:00,minneapolis,mn,us,disk,10,In October 1967&#44 2 Disks sited heading north over Minneapolis MN.,1967,10,1
-74.4175,40.8244444,10/6/1967 19:00,whippany,nj,us,disk,1800,noticed lights in the sky just above tree tops,1967,10,6
-80.0522222,26.5863889,10/7/1967 22:00,lantana,fl,us,other,180,UFO report and theory of motion.,1967,10,7
-91.5158333,36.2977778,10/17/1967 23:00,cherokee village,ar,us,circle,2100,Bright light - 12ft Sphere,1967,10,17
-122.7458333,48.9938889,11/15/1967 23:30,blaine,wa,us,unknown,36,UFO flyover during war games.,1967,11,15
-81.6852778,41.3138889,12/6/1967 3:30,broadview heights,oh,us,light,20,Saw descending star-shaped object&#44 slow&#44 bright&#44 no trails&#44 no explosion&#44 twice in 15 years.,1967,12,6
-112.8536111,42.7861111,1/12/1968 22:00,american falls,id,us,disk,20,Large glowing green in color looking up at the bottom it was round,1968,1,12
-74.0063889,40.7141667,3/1/1968 15:00,new york city,ny,us,disk,120,I remember it so well to this day.  I was in class getting ready for the day&#39s dismissal time at 3 pm.  All of us had our coats on and,1968,3,1
-115.1363889,36.175,4/15/1968 18:30,las vegas,nv,us,sphere,30,I was sighting in my new telescope I was on Eastern av in LV I turned my telescope in the direction of NNEtoward Nellis AFB it was alm,1968,4,15
-85.7994444,41.9025,5/15/1968 20:30,jones,mi,us,oval,1200,A black disc/oval shaped object was seen going directly up.,1968,5,15
-74.3458333,40.9219444,5/20/1968 19:00,towaco,nj,us,circle,2400,I&#44 and my wife at the time&#44 saw what appeared to be the center star in a star cluster I believed was big bear move in a half circle and,1968,5,20
-87.65,41.85,6/1/1968 4:30,chicago,il,us,oval,240,What we saw had no wings&#44 tail or struts.  It&#8217;s fuselage was elliptical in shape with a blunted nose and tail.,1968,6,1
-79.6405556,41.9202778,6/1/1968 17:00,corry,pa,us,fireball,900,Observed pink/orange glowing ball &quot;bouncing&quot; along railroad tracks for length of @ 2 city blocks&#44 then shoot straight up and disappear,1968,6,1
-94.3838889,29.82,6/1/1968 21:00,winnie (near),tx,us,fireball,120,was returning to Houston from Port Arthur...near Winnie....clear night....cloudless sky....emerged from car....studied sky....a,1968,6,1
-81.035,34.0005556,6/1/1968 21:00,columbia,sc,us,triangle,10,When I was 10&#44 both me and my brother saw a triangular-shaped UFO floating in front of our house.,1968,6,1
-92.1063889,46.7833333,6/6/1968 20:00,duluth,mn,us,disk,120,a ship hoovered over this police car,1968,6,6
-88.0111111,41.8088889,6/10/1968 11:00,downers grove,il,us,disk,300,11:00 am&#44 clear sky&#44 three of us saw a disk-shaped aircraft fly by&#44 about as high up as an airplane would be.,1968,6,10
-71.7133333,42.2958333,6/12/1968 12:30,shrewsbury,ma,us,rectangle,120,((HOAX??))  CRAFT WAS SQUARE LIKE A WINNABAGO BLACK NO NOISE DIDNT MOVE FOR OVER 2MIN WAS CLOSE LESS THAN QUARTER OF A MILE,1968,6,12
-118.3941667,37.3636111,6/15/1968 17:00,bishop,ca,us,disk,1800,Bright light several thousand feet over the Owens Valley near Bishop&#44 California.  Attacked by airplanes and left at high speed,1968,6,15
-96.8108333,32.7391667,6/15/1968 17:00,oak cliff,tx,us,disk,2700,Hovering disk with oval portholes in daylight hrs for a long time,1968,6,15
-75.4905556,40.6083333,6/15/1968 20:00,allentown,pa,us,sphere,300,Craft and Crew sighted,1968,6,15
-119.9652778,37.485,6/15/1968 22:00,mariposa,ca,us,unknown,600,Red lights shined into the back of the car.. just like the police have.,1968,6,15
-120.8583333,38.8541667,6/15/1968 22:30,garden valley,ca,us,disk,15,06-1968  Late evening&#44 forested  foothill road&#44 saucer  100 ft above car  3 witnesses&#44  no recall for 8 years.,1968,6,15
-118.0319444,33.9791667,6/30/1968 1:00,whittier,ca,us,sphere,420,A sphere of blue/white light/energy descended from the night sky to just outside my window.  It was 8-10&quot; and brissling with an electri,1968,6,30
-86.9966667,33.4511111,6/30/1968 9:00,hueytown,al,us,oval,600,Almond colored disc four witnesses saw beings in vehicle.,1968,6,30
-97.3969444,42.8711111,6/30/1968 12:00,yankton (gavins point dam),sd,us,unknown,1200,Blue sky black&#44 beam of light&#44 South Dakota camp rangers on  blow horns &quot;what you have just seen was a rare phenomenon of the weather.,1968,6,30
-72.8927778,41.5836111,7/1/1968 18:30,plantsville,ct,us,light,120,Large bright blue light in the sky,1968,7,1
-81.0661111,40.8352778,7/15/1968 18:00,homeworth,oh,us,triangle,600,Triangular shaped craft brushes apple tree in Columbiana County&#44Ohio,1968,7,15
-98.7280556,44.8969444,7/20/1968 15:00,zell (farm outside of),sd,us,disk,120,small disk shaped object&#44 weaving in between high voltage lines&#44 20 to 30 feet over my head&#44 broad daylight&#44 dull gray in color and emi,1968,7,20
-79.2947222,33.3766667,8/1/1968 20:00,georgetown,sc,us,other,1200,Massive explosion of glowing colors in the sky late in the evening as darkness began to settle in.,1968,8,1
-123.0855556,44.0522222,8/9/1968 21:00,eugene,or,us,cigar,300,A cigar shaped large object&#44 that blended colors from red to white. Stayed about 3 min.,1968,8,9
-83.7597222,32.6536111,8/14/1968 21:00,byron,ga,us,disk,300,Craft sighting related to protection or surveillance of niaki missile base?,1968,8,14
-117.7513889,34.0552778,8/15/1968 20:00,pomona,ca,us,light,600,A bright star grew larged and exploded in the sky and faded away in a ten minute period.,1968,8,15
-79.7922222,36.0725,8/15/1968 21:35,greensboro,nc,us,disk,120,We were close enough to see windows,1968,8,15
-122.7133333,38.4405556,9/9/1968 21:00,santa rosa,ca,us,circle,8,Large Orange Circlular Object Moving Slowly and Silently,1968,9,9
-87.7038889,37.7433333,9/10/1968 16:00,corydon,ky,us,disk,10,silvery saucer crossing overhead 200-300 feet up clear sky tipping side to side no sound,1968,9,10
-74.4125,40.5186111,9/30/1968 21:00,edison,nj,us,disk,1800,Three people saw a light go down in a nearby woods&#44 and approaching it found it was a saucer shaped object.,1968,9,30
-74.4125,40.5186111,9/30/1968 21:00,edison,nj,us,disk,1800,Sighting of a disc shaped object by three people.,1968,9,30
-71.0602778,42.3583333,10/1/1968 0:00,boston,ma,us,cigar,1200,as i woke up in the early morning a bright redish orange light bathed the living room&#44at first i thought it was a fire but the light wa,1968,10,1
-92.8522222,44.7433333,10/15/1968 2:00,hastings,mn,us,triangle,120,Perfect semi circle vapor trail left as soundless UFO makes a turn-around overhead.,1968,10,15
-72.5902778,42.1013889,10/25/1968 19:00,springfield,ma,us,disk,300,Unexpected siting of a disk shaped object fully illuminated by bright&#44 circling lights around this object,1968,10,25
-80.1938889,25.7738889,10/30/1968 19:00,miami,fl,us,fireball,600,Miami UFO Sighting,1968,10,30
-117.1563889,32.7152778,11/10/1968 3:00,san diego (allied gardens),ca,us,unknown,180,I  AWAYS HAD THE FEELING I WAS &quot; NOT&quot; TO TALK ABOUT THIS&#44 &quot; TO ANYONE-,1968,11,10
-122.2336111,47.3811111,11/20/1968 7:30,kent,wa,us,triangle,30,At daybreak&#44 object (with recessed light in nose&#44 and soundless) passed by us in the low clouds. It was barely getting light enough to,1968,11,20
-86.6152778,33.9075,11/30/1968 21:30,locust fork,al,us,light,180,Smaller UFO comes from behind mountain and enters larger one.,1968,11,30
-91.56,38.6694444,12/3/1968 2:00,gasconade,mo,us,unknown,1800,Colored fog on ground.  Mom wouldn&#39t let me go outside to see what it was.  I am a Nuc. Engr.Sisters &amp; Person not yet born then has see,1968,12,3
-92.4055556,32.7733333,1/1/1969 20:00,farmerville,la,us,other,120,Five bright white&#44 small balls jumped out of the sky&#44 and bounced across the road.,1969,1,1
-80.1938889,25.7738889,1/15/1969 23:00,miami,fl,us,sphere,900,Sphere&#39s appear in the room within touching distance and stay for a considerable amount of time.,1969,1,15
-81.5861111,27.9011111,1/20/1969 19:00,lake wales,fl,us,disk,300,The ufo used simulated police lights to pull me over and then just sat there apparently observing me.,1969,1,20
-83.9008333,33.8388889,4/1/1969 7:00,loganville,ga,us,cigar,15,Cigar shaped silver object larger than schoolbus&#44 witnessed by kids and bus driver,1969,4,1
-77.1713889,38.8822222,6/1/1969 18:45,falls church,va,us,other,1800,round plate like structure,1969,6,1
-81.5191667,41.0813889,6/1/1969 22:00,akron,oh,us,light,10,Aerial light makes turns not possible for aircraft.,1969,6,1
-121.2247222,38.6786111,6/1/1969 23:00,orangevale,ca,us,unknown,2700,UFO over Orangevale&#44 CA in May/June 1969,1969,6,1
-122.675,45.5236111,6/10/1969 1:00,portland,or,us,disk,180,WE WERE CLOSE  ENOUGHT TO THROW ROCKS AT THEM  WE WERE CONCERNED THAT THEY SEEN US I WAS SCARED,1969,6,10
-92.2894444,34.7463889,6/15/1969 15:00,little rock,ar,us,cylinder,60,no sound or lights,1969,6,15
-78.395,40.5186111,6/15/1969 19:00,altoona,pa,us,other,600,Space ship hovered with colored lights going around not flashing just circling the ship,1969,6,15
-96.3697222,30.6741667,6/15/1969 20:00,bryan,tx,us,triangle,60,the lights of the first craft turned back on and 2 more identically lighted aircraft zipped in on both sides of the lead aircraft ...&#44,1969,6,15
-77.3066667,38.8461111,6/15/1969 23:50,fairfax,va,us,oval,60,Huge blimp-like craft; lights around the middle of craft; no sound; hovering above the highway.,1969,6,15
-73.1127778,40.8152778,6/21/1969 23:00,ronkonkoma,ny,us,unknown,3600,A unidentified craft with multi-colored lights that hovered silently and could move at Incredible speeds&#44,1969,6,21
-86.1580556,39.7683333,6/30/1969 18:00,indianapolis,in,us,disk,1200,Large silver sphere/saucer-shaped object that hovered for several minutes. Emitted dots (in data-style format) from side.,1969,6,30
-87.1580556,33.2416667,7/1/1969 22:15,chambers county (area of al-ga line),al,us,circle,300,MUFON/GEORGIA FOLLOW-UP REPORT:  Two hovering circles of light(s)/objects,1969,7,1
-146.3483333,61.1308333,7/5/1969 10:53,valdez,ak,us,disk,1020,Orange water,1969,7,5
-119.7713889,36.7477778,7/7/1969 22:00,fresno,ca,us,other,120,30 years ago large ufo with stinger like object emitting sparks then sped away.,1969,7,7
-111.8902778,40.7608333,7/10/1969 12:00,salt lake city,ut,us,circle,2100,the craft were moving very slowly and was low just over the top of buildings.,1969,7,10
-93.3063889,41.0138889,7/10/1969 21:00,chariton,ia,us,circle,300,It was disk shaped and brilliant white on the bottom&#44flew at a high rate of speed and changed direction at 90 degree turns.,1969,7,10
-84.6386111,39.5630556,7/15/1969 22:30,somerville,oh,us,light,300,my report is about a sighting on 7/15/1969 at 10:30pm where the sky lit up like day as bright as noon for about 5 minutes no sound was,1969,7,15
-77.7908333,35.9380556,7/27/1969 21:45,rocky mount,nc,us,sphere,900,A  FLYING OBJECT BURNED TOP OF TREES IN ROCKY MOUNT&#44 NC. 1969,1969,7,27
-81.5191667,41.0813889,7/30/1969 13:00,akron,oh,us,circle,10800,Giant Silver Ball Hanging Over Akron In the Late 1960&#39s,1969,7,30
-84.1916667,39.7588889,8/1/1969 17:30,dayton,oh,us,disk,60,Large silver disk &quot;rolls&quot; alongf tree tops near Wright-Patterson AFB,1969,8,1
-78.9222222,40.3266667,8/15/1969 2:00,johnstown,pa,us,triangle,600,WHAT I SAW WAS MUCH LIKE THE SIGHTING IN MILLSTADT&#44 ILL...ONLY ALL I COULD MAKE OUT WAS THE MOVING LIGHT FORMATION..SLOWLY  MOVING HORO,1969,8,15
-73.0697222,40.9463889,8/15/1969 12:00,port jefferson,ny,us,disk,3600,Metallic Disc hovers high over commercial jet traffic.,1969,8,15
-116.9616667,32.7947222,8/15/1969 19:00,el cajon,ca,us,other,7,A creature crossed my path and ordered me not to hurt it&#44 as I was driving at the time.,1969,8,15
-118.9133333,35.2597222,8/15/1969 22:00,lamont,ca,us,formation,5,9 to 13 objects in &quot;V&quot; formation travelling about 100 mi per second graze ionosphere.,1969,8,15
-68.5688889,45.2488889,8/27/1969 21:00,enfield,me,us,oval,900,The object would stop and move and then blink off and be somewhere else in the sky. And started moving again but at a slow pace&#33,1969,8,27
-97.1702778,32.8233333,10/15/1969 19:00,hurst,tx,us,disk,60,the light that came as i called it,1969,10,15
-80.0852778,42.1291667,10/25/1969 6:00,erie,pa,us,circle,1200,bright circular object along Lake Erie,1969,10,25
-117.6616667,33.5016667,11/1/1969 7:00,san juan capistrano,ca,us,unknown,10,My brother saw a little man.,1969,11,1
-147.7163889,64.8377778,11/1/1969 19:30,fairbanks,ak,us,formation,240,Sighting of 5 objects in a PENTAGON formation near Fairbanks&#44 Alaska around 1969,1969,11,1
-91.1972222,30.2044444,12/15/1969 16:00,glenmore,la,us,circle,20,A very clear sighting on highway U.S. 165 in Louisiana north of Oakdale near the small town of Glenmora in 1969.,1969,12,15
-116.9711111,33.7475,1/15/1970 21:00,hemet,ca,us,cylinder,3600,Large at least 20 feet metallic ball&#44 blue grey (but it did change colors)&#44like liquid metal&#44 outside of my Mothers house just off the,1970,1,15
-74.0063889,40.7141667,5/1/1970 0:00,new york city (bronx),ny,us,other,300,Bronx&#44 NY : It was a  solid silver -colored pyramid&#44  spinning 100 feet above Public School 54&#39s yard,1970,5,1
-95.3630556,29.7630556,5/1/1970 3:00,houston,tx,us,disk,600,Saucer flew over house in Houston,1970,5,1
-84.2697222,36.0102778,5/1/1970 14:30,oak ridge,tn,us,disk,300,I was standing in front of my house with my friends when the glint of something mettallic caught my eye.  I looked up and saw what I ca,1970,5,1
-94.5783333,39.0997222,5/15/1970 16:00,kansas city,mo,us,light,10,A brilliant&#44 greenish light that suddenly appeared within a grey cloud overhead.,1970,5,15
-80.3975,27.6383333,5/16/1970 17:00,vero beach,fl,us,oval,120,My step-father and I were drining a coffee of coffee on our porch&#44 waiting for my mother to get home from work...it was still daylight,1970,5,16
-82.9988889,39.9611111,6/1/1970 17:00,columbus,oh,us,disk,120,I SEEN  A UFO WHEN I WAS ABOUT 13 YEARS OLD. THE YEAR WAS ABOUT1970&#44  IT WAS IN THE FALL IN COLUMBUS OHIO. AT FIRST I THOUGH I SAW A BL,1970,6,1
-96.6055556,42.7555556,6/1/1970 22:00,westfield,ia,us,disk,300,I saw a UFO over a house&#44 very close to roof.,1970,6,1
-75.6927778,38.2027778,6/10/1970 17:00,princess anne,md,us,oval,300,Bright orange disk with vertical stripes&#44 or ribs.  Eastern Maryland.,1970,6,10
-90.1541667,41.4480556,6/15/1970 2:00,geneseo,il,us,unknown,1200,Early morning abduction,1970,6,15
-95.3630556,29.7630556,6/15/1970 3:00,houston,tx,us,disk,900,Saucer very low to ground,1970,6,15
-104.8197222,41.14,6/20/1970 2:00,cheyenne,wy,us,circle,2700,followed by flying silent vehical for 45 minutes in wyomming,1970,6,20
-117.9452778,33.9319444,7/7/1970 20:00,la habra,ca,us,sphere,1200,SILENT ORANGE ORB OVER MY NEIGHBORS HOUSE IN 1970,1970,7,7
-73.2458333,42.45,7/15/1970 23:30,pittsfield,ma,us,light,1200,I was fortunate to have witnessed 2 unidentified objects over a 15-20 minute period in Western MA around 1970.,1970,7,15
-107.5544444,46.1291667,7/18/1970 23:00,custer,mt,us,light,1200,It had been stationary in the sky for about two hours when it  just &quot;took off&quot; and then went back the way it had originated from before,1970,7,18
-82.3527778,26.9616667,7/20/1970 19:00,englewood,fl,us,sphere,60,A white ball was moving across the sky. It has a tail like a comet. T he sun was just below the horison. Then the light stopped. It  hu,1970,7,20
-93.7022222,37.3425,8/1/1970 21:00,everton,mo,us,light,3600,strange lights follow automobile,1970,8,1
-74.575,39.2775,8/15/1970 0:30,ocean city,nj,us,disk,600,1970 sighting of two disks flying with U.S. military formation at New Jersey shore.,1970,8,15
-99.3347222,31.135,8/26/1970 9:30,brady,tx,us,circle,37800,Object with colored lights seen in nite sky,1970,8,26
-118.2427778,34.0522222,9/1/1970 14:00,los angeles,ca,us,disk,120,Northbound saucer-shaped objects zigzag across Southern California,1970,9,1
-100.4366667,31.4636111,9/10/1970 21:30,san angelo,tx,us,light,20,Three white light plasma craft (w intelligent thought) sped across Texas sky and the shot up into atmosphere.,1970,9,10
-83.4002778,42.3241667,10/15/1970 10:00,westland,mi,us,unknown,20,Early 1970&#39s&#44 object going around the sun.,1970,10,15
-73.3738889,40.6866667,10/29/1970 19:50,lindenhurst,ny,us,sphere,10,Object raced across sky&#44 stopped&#44 zig zagged back and then took off out of sight. We seemed frozen&#44 watched stopped&#44 arm hairs stood up,1970,10,29
-86.8688889,35.925,11/7/1970 21:00,franklin,tn,us,sphere,300,White globe above river at prehistoric indian site,1970,11,7
-74.6102778,40.5741667,11/15/1970 21:00,somerville,nj,us,disk,3600,We Had An Alien Trapped&#33,1970,11,15
-74.2636111,40.6975,12/1/1970 16:30,union,nj,us,disk,1800,UFO over 5 Points&#44 Union &#44 NJ,1970,12,1
-81.5861111,27.9011111,12/21/1970 19:00,lake  wales,fl,us,oval,300,Pulled over by a ufo using police lights,1970,12,21
-74.9294444,39.7911111,12/24/1970 18:00,berlin,nj,us,cylinder,300,Cylinder shape&#44 not fast moving like you see in all the usual sightings. Like i could feel it observing me.,1970,12,24
-71.1736111,44.3877778,2/1/1971 19:00,gorham,nh,us,light,300,Bright lite seen moving eraticaly over mountains with no noise.,1971,2,1
-75.3019444,40.0791667,2/5/1971 18:45,conshohocken,pa,us,circle,900,Very large circular craft with engine problem&#44 descends&#44 stabilizes&#44restores engines and tests them.,1971,2,5
-79.4380556,36.0955556,4/15/1971 15:30,burlington,nc,us,circle,30,I was thirteen years old&#44 was in the back seat of a Volkswagon Beetle being driven home from school&#44 while gazing out the rear window I,1971,4,15
-80.4458333,37.8016667,5/1/1971 2:00,lewisburg,wv,us,triangle,900,I observed a triangular object hovering without sound for approximately 15 minutes during the night.,1971,5,1
-87.9727778,34.7569444,5/1/1971 19:00,cherokee,al,us,light,1200,i was 13 when this event (i am 43 now ). we were returning home from visting friends when i was looking out  at the sky. i saw a bright,1971,5,1
-83.1877778,35.9669444,6/1/1971 1:00,newport,tn,us,light,300,The light could move slowly or inordinately fast any direction in complete silence.,1971,6,1
-90.7897222,35.0080556,6/1/1971 17:00,forrest city,ar,us,disk,120,The disc was silver no lights or seems but we only saw the bottom not the top or sides.,1971,6,1
-121.9875,37.5483333,6/10/1971 9:00,fremont,ca,us,circle,2,pulsed humming sound&#44 object zips overhead,1971,6,10
-81.1236111,28.6416667,6/15/1971 20:00,chuluota,fl,us,triangle,3600,Light in the sky that stopped time,1971,6,15
-84.1783333,42.8386111,6/30/1971 20:00,morrice (near),mi,us,disk,40,We were walking and came to the corner of S. Corey Rd. and Lovejoy Rd. when all of a sudden over our right shoulders we saw the craft.,1971,6,30
-119.6972222,34.4208333,7/4/1971 19:00,santa barbara,ca,us,unknown,600,Fast flying object in Santa Barbara,1971,7,4
-100.9205556,37.0430556,7/4/1971 22:00,liberal,ks,us,cigar,1200,cigar shaped object appeared low over lake in Great Bend after July 4th fireworks.,1971,7,4
-90.075,29.9544444,7/10/1971 14:00,new orleans,la,us,oval,5400,One thousand saucers observed telescopically crossing the sun over a ninety minute period.,1971,7,10
-94.1622222,45.5608333,7/10/1971 18:00,st. cloud,mn,us,light,15,I was 15 at the time&#44 and lived on a farm. Finished supper and walked out of the house to work in the barn. Between the out buidings I,1971,7,10
-82.46,38.1219444,7/15/1971 12:00,genoa,wv,us,cigar,300,Me and my brother saw a cigar shaped object move quietly and very slowly above us for about 5 minutes.,1971,7,15
-88.0075,43.0494444,7/17/1971 21:00,wauwatosa,wi,us,disk,600,It just hovered and we heard a humming noise,1971,7,17
-72.5219444,41.7758333,7/20/1971 21:00,manchester,ct,us,light,300,Bue lights in Manchester Ct. Sky 1971,1971,7,20
-115.4775,40.7280556,8/1/1971 15:00,lamoille (above),nv,us,cigar,900,Close Up&#44 Broad Daylight Sighting of  a UFO.,1971,8,1
-102.6147222,31.9805556,8/1/1971 20:00,goldsmith,tx,us,light,1800,I was 16 when I had this sighting and I am not 51. At that time I didn&#39t know how to report a sighting.  I was at a baseball park and s,1971,8,1
-85.2886111,32.9897222,8/1/1971 21:00,fredonia,al,us,unknown,120,my  wife and I were travling east of fredonia &#39when my wife noticed strange lights crossing alarge pasture. i stopped the car and got o,1971,8,1
-77.055,42.1427778,8/10/1971 22:00,corning,ny,us,disk,300,craft made no noise and leveled and lowered into field.,1971,8,10
-95.3630556,29.7630556,9/15/1971 18:00,houston (near),tx,us,circle,2700,This is about a craft with a circular beam of light that could penetrate through a roof and ceilng of a house.,1971,9,15
-81.5161111,35.1211111,9/15/1971 20:00,blacksburg,sc,us,disk,300,I saw some bright lights moving over high voltage power lines.Object made right turn and went down behind some trees.I drove ahead and,1971,9,15
-122.7427778,45.9047222,9/20/1971 16:00,woodland,wa,us,disk,360,Saucer shaped craft at roof level just hovering&#44 round windows along the side and dome in the middle.,1971,9,20
-80.2536111,35.8238889,10/10/1971 21:00,lexington,nc,us,oval,30,green oval shaped light over my local church&#44power lines down..,1971,10,10
-73.725,42.6919444,10/12/1971 22:00,menands (albany),ny,us,chevron,180,Large&#44 black&#44  &quot;boomerang&quot; shaped object gliding silently overhead.,1971,10,12
-73.1891667,41.7472222,10/15/1971 20:30,litchfield,ct,us,circle,360,Mothership over Litchfield CT,1971,10,15
-87.7844444,41.5733333,10/15/1971 20:30,tinley park,il,us,disk,900,Saw a disc shaped craft with 3 lights,1971,10,15
-86.5861111,34.7302778,1/1/1972 20:00,huntsville,al,us,unknown,120,3 lights&#44 light speed&#44 no sound&#44 90 degree turn,1972,1,1
-81.5161111,35.1211111,1/18/1972 21:00,blacksburg,sc,us,light,7200,In the early 70&#39s&#44 four of us chased lights in the sky. ( we were in a vehicle ),1972,1,18
-121.6544444,36.6777778,3/1/1972 23:30,salinas,ca,us,cigar,180,Huge object. At least 2 football fields long. Altitude approx. 500 ft. Observed moving slowly westerly direct. No lights. No sound. Und,1972,3,1
-86.1905556,36.7533333,3/4/1972 2:00,scottsville,ky,us,disk,1800,Flying Disk Lands in Field,1972,3,4
-83.2647222,42.8247222,6/1/1972 0:00,oxford,mi,us,light,600,As a child saw lights in the woods and had an encounter with being,1972,6,1
-82.3941667,34.8525,6/1/1972 21:30,greenville,sc,us,circle,120,Craft[ very bright green in color ]  rose up above trees in a highly wooded area&#44zig zagged[like a climbing stairs motion]floated direc,1972,6,1
-91.9469444,38.1866667,6/1/1972 23:00,vienna,mo,us,cigar,600,Cigar shaped craft with colored port holes moves slowly over tree tops.,1972,6,1
-81.4888889,41.52,6/7/1972 14:00,lyndhurst,oh,us,oval,30,Reading entry from Beachwood in 1972 reminded me that I saw the same type thing.,1972,6,7
-122.2966667,40.4483333,6/9/1972 13:00,anderson,ca,us,circle,10,Two round reddish orange metallic disks few overhead and were seen for about seven seconds.,1972,6,9
-73.5111111,41.9536111,6/10/1972 0:00,millerton,ny,us,disk,1200,it desended at a tremendous rate of speed&#44 stopped abruptly above the trees&#44 suddenly a beam of blue white light lit up my car,1972,6,10
-79.7922222,36.0725,6/15/1972 21:00,greensboro,nc,us,disk,180,Silent&#44 rotating disk with alternating red and white light panels&#44 approxomately 20 feet in diameter&#44 30 to 40 feet off the ground.,1972,6,15
-118.2427778,34.0522222,6/20/1972 20:00,los angeles,ca,us,light,180,UFO&#39s put on a show for mother and children over the Santa Monica ocean.,1972,6,20
-73.7566667,42.6525,6/25/1972 15:00,albany,ny,us,cigar,10,Sighting report:    Cigar shapped object over the Hudson River&#44 Albany N.Y. 30 years or so ago,1972,6,25
-79.9416667,37.2708333,6/30/1972 3:30,roanoke,va,us,unknown,300,WHAT LOOKED LIKE STARS IN SKY THAT WERE MOVING IN FORMATION,1972,6,30
-82.3011111,35.9172222,6/30/1972 5:00,burnsville,nc,us,circle,600,I saw the same type of UFO at two different times in my life&#44 once at age nine and again at age 30.,1972,6,30
-82.7569444,28.1458333,6/30/1972 18:00,tarpon springs,fl,us,light,480,N ine colored hovering spheres and helicopters rbelow spotted from holiday lake est. over florida power,1972,6,30
-87.6563889,39.1094444,6/30/1972 20:00,hutsonville,il,us,disk,120,A low pitch humming noise and a series of bright lights noted at ground level near an electrical power plant,1972,6,30
-79.7922222,36.0725,6/30/1972 21:00,greensboro,nc,us,light,300,Fluorescent orange boomerang shapes.,1972,6,30
-84.1702778,33.8080556,7/1/1972 3:00,stone mountain,ga,us,circle,600,Drone or Survey Mission in Stone Mountain?,1972,7,1
-87.8,41.7627778,7/1/1972 15:00,bedford park,il,us,other,10,This was a sighting of a glowing being. The date is approximate. I think I was about 8 years old and it was summer. A friend and I were,1972,7,1
-97.3180556,37.8,7/5/1972 14:00,park city,ks,us,disk,10,I saw a flying saucer hovering above me in the middle of the street.,1972,7,5
-96.3697222,30.6741667,7/9/1972 21:00,bryan,tx,us,triangle,120,Me and a friend had a teloscope out and were using my binos to spot a star to view.Somthing blocked out the star i was looking at&#44i low,1972,7,9
-94.9841667,44.5513889,7/15/1972 17:00,morton (9 miles north of),mn,us,triangle,300,A triangular craft w/3 lg orange lights silently flew overhead going west to east.  It then sped up and away.,1972,7,15
-122.8744444,42.3266667,7/15/1972 22:00,medford,or,us,light,600,Projecting-retracting-light beam from no visible source,1972,7,15
-84.3744444,39.145,7/15/1972 23:00,mariemont,oh,us,oval,720,UFO and elecrical power grid.,1972,7,15
-77.0013889,41.2411111,7/20/1972 15:00,williamsport,pa,us,fireball,60,fireball&#44 ( meteor ? ),1972,7,20
-118.1730556,35.0525,7/30/1972 18:00,mojave (vicinity),ca,us,light,90,Craft must have been setting on ground when we arrived. We were on vacation and were headed home from Northern California. We had pulle,1972,7,30
-94.3933333,29.5666667,8/4/1972 23:00,high island,tx,us,light,21600,Landing&#44 beamed lights&#44 formation and singly many witness and over several nights&#44 affected phones/cars,1972,8,4
-122.6380556,45.4463889,8/20/1972 19:00,milwaukie,or,us,light,300,An unseen&#44 low-flying object was emitting a beam of light on the ground coming towards us.,1972,8,20
-96.0969444,42.0266667,9/1/1972 10:00,onawa,ia,us,disk,180,Saucer shaped object with square red lights moves slowly over small Iowa town.,1972,9,1
-88.7033333,34.2575,9/15/1972 7:00,tupelo,ms,us,oval,180,School Teacher observes large Oval craft near Tupelo,1972,9,15
-97.1327778,33.2147222,10/1/1972 4:00,denton,tx,us,unknown,600,Slow moving object splits and one part sped away while the bigger part slowly moved in the opposite direction.,1972,10,1
-121.9697222,47.8555556,10/1/1972 23:00,monroe,wa,us,rectangle,900,STOP AND GO THE SIZE OF A LARG CAR WITH NO WINDOWS,1972,10,1
-87.3247222,31.5277778,10/29/1972 15:30,monroeville,al,us,cylinder,15,Fighter jet chasing object in the sky over south Alabama,1972,10,29
-85.3097222,35.0455556,12/1/1972 17:00,chattanooga,tn,us,circle,1800,Blue Circles &amp; 1 Red Circle float in formation (Alt. 20K to 50K feet),1972,12,1
-85.3097222,35.0455556,1/1/1973 23:30,chattanooga,tn,us,oval,30,3 objects in a tri-angle formation also in stationary mode for about 20 to 30 sec. Then dispersed in different directions in less than,1973,1,1
-89.6938889,29.4802778,2/1/1973 23:00,port sulphur,la,us,circle,3,Drag Racing UFO&#39s,1973,2,1
-79.9416667,37.2708333,2/2/1973 21:00,roanoke,va,us,sphere,90,Silver silent sphere seen in Roanoke&#44 VA in 1973,1973,2,2
-90.075,29.9544444,3/13/1973 4:00,new orleans,la,us,circle,7200,My husband and I stopped early one morning on a highway to look at a bright object&#44 the object was a large round  silver thing.,1973,3,13
-83.31,42.2941667,3/15/1973 5:00,inkster,mi,us,fireball,300,I watched a ball of fire&#44 as it flew at a sustained altitude&#44 across the sky going east to west,1973,3,15
-92.975,29.7666667,4/25/1973 18:30,grand chenier,la,us,sphere,20,Have always felt certain it was a meteorite&#44 It was a burning ball of fire about 3 to 4 foot in diameter. This object hit the earth. Af,1973,4,25
-77.2016667,39.1433333,5/1/1973 9:00,gaithersburg,md,us,disk,240,Disk-shaped object with sequentially-flashing green lights around the perimeter -- 5/73 -- flying low.,1973,5,1
-120.6586111,35.2827778,5/14/1973 16:00,san luis obispo,ca,us,unknown,300,It made a 90 degree turn at a high rate of speed&#44 and disappeared through the atmosphere.,1973,5,14
-122.4430556,47.2530556,5/15/1973 1:30,tacoma,wa,us,sphere,120,No noise and hovering Close to Air Base,1973,5,15
-94.2086111,36.3727778,6/1/1973 0:00,bentonville,ar,us,other,10800,Was I abducted in 1973????????????,1973,6,1
-82.01,30.8302778,6/1/1973 2:00,folkston,ga,us,light,14400,I left home in Macclenny Fla and drove north on rt. 23/121 into Georgia around 2am I came to a crossroads just out side of Folkston Ga.,1973,6,1
-122.6419444,48.2933333,6/1/1973 3:00,oak harbor,wa,us,unknown,30,alien in the woods,1973,6,1
-122.53,37.9736111,6/1/1973 13:00,san rafael,ca,us,oval,1200,Sister and family see huge UFO at marin county civic center.,1973,6,1
-87.2169444,30.4211111,6/1/1973 21:00,pensacola,fl,us,circle,480,I have not told this but to a few friends  ...  ..Me and my dad ( who is now 77 )&#44 my cousin along with a few campers years ago  ( 1973,1973,6,1
-157.8583333,21.3069444,6/1/1973 22:30,honolulu,hi,us,disk,20,UFO at Kam Drive-In Honolulu Hawaii,1973,6,1
-96.4338889,43.4536111,6/6/1973 22:00,larchwood,ia,us,diamond,600,Diamond shaped object seen by family of 5 driving near TV transmission tower in South Dakota at Iowa Border.,1973,6,6
-95.0191667,29.6655556,6/7/1973 15:00,la porte,tx,us,disk,60,Saucer shaped object with glowing orange light that vanished behind a solitary cloud in broad daylight.,1973,6,7
-106.3063889,35.8880556,6/15/1973 8:00,los alamos,nm,us,cigar,30,Has anyone else reported a ufo over LOS ALAMOS NATIONAL LABORATORIES around this time? I know of at least 2 others that saw it. It was,1973,6,15
-80.2133333,38.1352778,6/15/1973 14:00,hillsboro,wv,us,circle,14400,Largo red object sitting over a ridge. If indeed it was hovering over this ridge it was very large. Well over 100 feet. It attracted my,1973,6,15
-85.7144444,34.9475,6/15/1973 15:30,bridgeport,al,us,disk,30,Two objects&#44 saucer and cigar shaped&#44 at 3&#44500 ft. moving north toward Chattanooga&#44 Tenn.,1973,6,15
-74.0125,40.9952778,6/15/1973 20:00,river vale,nj,us,circle,20,Two large round very bright white objects with very fast precise movents&#44 moving independently then dissapearing,1973,6,15
-86.9833333,34.6058333,6/15/1973 21:00,decatur,al,us,circle,900,mid 1970&#39s UFO over Decatur&#44Alabama,1973,6,15
-90.5461111,38.595,6/15/1973 21:30,ballwin,mo,us,disk,1200,In June&#44 1973 myself and 6 others watched a huge&#44 silent&#44 metallic disk hover over my house.,1973,6,15
-86.7536111,33.1027778,6/15/1973 22:30,calera (out-skirts),al,us,disk,900,Group to see the &quot;un-explained&quot;in the night sky.,1973,6,15
-88.8138889,35.6144444,6/21/1973 21:00,jackson,tn,us,oval,600,A massive silent object was a small dot in a matter of seconds leaving us watching in total darkness and amazement.,1973,6,21
-82.1402778,29.1869444,6/30/1973 2:00,ocala,fl,us,unknown,1200,Unknown flying object circled home at high rate of speed creating a vacuum and making a high pitched whistling/whooshing sound.,1973,6,30
-77.2016667,39.1433333,7/1/1973 8:00,gaithersburg,md,us,disk,30,Black round obj  with seq flashing green lights&#44 6-8 in wide viewed at arm&#39s length&#44 and seen in daylight -- and no wings&#33,1973,7,1
-74.1944444,43.0175,7/1/1973 20:00,perth,ny,us,light,900,Bright orange glowing stationary object,1973,7,1
-96.8622222,33.955,7/1/1973 20:00,powell,ok,us,sphere,3,My mother and I saw a sphere of light travel through the house&#44 while sitting watching TV.,1973,7,1
-122.675,45.5236111,7/7/1973 17:30,portland,or,us,fireball,120,My cousin and I were laying on our backs on a hill in front of my home - at about a 30 degree angle.  Looking up at the night sky&#44 talk,1973,7,7
-102.3672222,31.8455556,7/7/1973 18:00,odessa,tx,us,disk,3600,A 100 foot diameter&#44disk shape&#44 dome top.The color was of stainless steel.It made no sound.This UFO came from the Odessa area&#44 moved ou,1973,7,7
-80.2536111,35.8238889,7/14/1973 20:00,lexington,nc,us,oval,300,My Aunt&#44 Uncle&#44 and myself witnessed an oval UFO while traveling in Uncles car.,1973,7,14
-84.2963889,33.7747222,7/15/1973 21:00,decatur,ga,us,triangle,900,THE TRIANGULAR OBJECT WAS BIG AND WIDE AT CLOSE RANGE MOVING SLOWLY AND HOOVERING OVER THE AREA WE WERE IN.,1973,7,15
-84.3394444,33.5830556,8/1/1973 0:00,morrow,ga,us,triangle,300,Metallic&#44 grey&#44 triangular object hovers just above tree top level behind house as we stood approx. 150 &#39 away on a clear summer night.,1973,8,1
-70.7366667,43.0880556,8/1/1973 4:00,kittery,me,us,formation,10,A VERY fast light point object that was viewed for about 10 Seconds.,1973,8,1
-98.6597222,38.1055556,8/15/1973 21:30,hudson,ks,us,triangle,1200,Three redish\orange arrowhead shape craft.,1973,8,15
-76.8847222,40.9644444,9/8/1973 20:00,lewisburg,pa,us,triangle,180,triangular ufo with red&#44 blue.green&#44lights,1973,9,8
-98.4933333,29.4238889,9/12/1973 23:00,san antonio,tx,us,circle,300,Dark round object with long trail of sparks following  it seemed to slowly float  just above our home.,1973,9,12
-82.5155556,40.7583333,9/20/1973 15:15,mansfield,oh,us,cigar,1200,In the Fall of 1973 my sister and I came upon a large silver object hovering approximatley 20 feet above us on a clear&#44 sunny afternoon,1973,9,20
-86.5263889,39.1652778,10/1/1973 20:00,bloomington,in,us,light,1200,Three large bright white craft  interacting &amp; manuevering rapidly accross a quadrant of night sky.,1973,10,1
-81.9316667,41.2377778,10/1/1973 22:45,valley city,oh,us,disk,300,It was a star shaped object travelling south that stopped&#44 changed colors&#44 and sped off dissapearing in the night sky.,1973,10,1
-88.7033333,34.2575,10/8/1973 18:30,tupelo,ms,us,disk,4,Father and Daughter sees disc over Tupelo&#44 Ms.,1973,10,8
-72.1936111,41.3252778,10/10/1973 19:00,niantic,ct,us,disk,1800,Oh&#44 what a night &#33  Two (2) saucer-shaped&#44 glowing green objects and one (1) brilliantly glowing sphere gliding over the lake.,1973,10,10
-80.0944444,26.9338889,10/11/1973 16:45,jupiter,fl,us,egg,14400,EGG-SHAPED OBJECT EMITS LIGHT RAY AND PEOPLE LOSE 4 HOURS,1973,10,11
-86.8025,33.5205556,10/12/1973 19:00,birmingham (just south of),al,us,disk,900,Glowing Green UFO seen by myself (mom) and my 4 children very low over our car on a Friday night in Alabama in 1973.,1973,10,12
-85.5719444,39.7383333,10/20/1973 23:30,carthage,in,us,fireball,1200,Fireball above tree line,1973,10,20
-76.6125,39.2902778,10/21/1973 18:30,baltimore,md,us,disk,480,&quot;Jupiter Two&quot;-like spacecraft&#44 flew noiselessly&#44 slowly just over the field in our backyard.,1973,10,21
-110.1611111,38.9952778,10/30/1973 4:00,green river (20 miles west of on i-70),ut,us,disk,15,Mothership coming in for a landing&#33,1973,10,30
-75.3561111,39.8494444,11/11/1973 19:00,west chester,pa,us,disk,180,I lived near a general aviation airport so I thought that I was witnessing another aircraft. At dusk&#44 it came towards me with a constan,1973,11,11
-95.3377778,41.4766667,12/3/1973 19:00,avoca,ia,us,unknown,3600,Stationary bright white light that turned red and appeared to envelope the object once it started to move at a high speed.,1973,12,3
-122.2336111,47.3811111,1/1/1974 1:00,kent,wa,us,cigar,300,Cigar shaped with distint window shapes the width of the object&#44 wasn&#39t moving&#44 it was about 20 to 30 feet off the ground.  I saw no li,1974,1,1
-87.4138889,39.4666667,1/15/1974 5:00,terre haute,in,us,disk,1200,UFO tampreing with comunication towers in Terre Haute&#44 In,1974,1,15
-71.3830556,41.8786111,1/24/1974 22:00,pawtucket,ri,us,disk,3600,R.I. sphere shaped object  landed on flat top three door garage.  1974 .the beams still show cracks that developed from the weight,1974,1,24
-75.4855556,41.5916667,2/15/1974 22:10,simpson,pa,us,unknown,600,Hovered- Colored lights went out- sped away -left trail,1974,2,15
-122.7133333,38.4405556,3/15/1974 22:30,santa rosa,ca,us,disk,7200,The size of the object and it&#39s perfect detail left us with no doubt of what we were seeing.,1974,3,15
-104.8313889,39.7294444,4/1/1974 7:30,aurora,co,us,changing,5,Ever changing Object sighted&#44 Aurora&#44 Colorado&#44 1974,1974,4,1
-82.8272222,39.4438889,4/10/1974 7:10,hallsville,oh,us,sphere,900,Lighted sphere observed hovering in morning sky.,1974,4,10
-81.9352778,40.805,4/15/1974 22:00,wooster,oh,us,sphere,600,Large sphere&#44 surface covered with different colored &#39domes&#39&#44 so that no smooth surface was visible.,1974,4,15
-119.2922222,34.2783333,4/15/1974 22:00,ventura,ca,us,circle,240,3 object circle&#44 large outer side moveing around&#44 white lights lasted for 3-4minutes,1974,4,15
-89.9577778,36.7958333,4/15/1974 23:00,dexter,mo,us,disk,600,IN 1974&#44 A FRIEND AND I WERE ON OUR WAY HOME. WE STOPPED AT A STOP SIGN. I LOOKED OUT THE WINDOW AND SAW A UFO. SHE ALSO SAW IT.,1974,4,15
-95.3630556,29.7630556,4/23/1974 21:00,houston,tx,us,light,7,Satellite that behaved very unsatellitish.  ((NUFORC Note:  Report from aviation mechanic.  PD)),1974,4,23
-96.3908333,35.8305556,5/15/1974 13:00,bristow,ok,us,cigar,300,Large&#44 drab color&#44 enormous&#44 cigar shaped&#44 no appendages on craft. Moving at moderately fast speed&#44 (faster than any blimp could}. trav,1974,5,15
-84.5144444,33.8838889,5/15/1974 20:30,smyrna,ga,us,disk,120,We saw a disc-shaped object with a row of blinking lights traverse the sky silently&#44 rapidly&#44 and repeatedly.,1974,5,15
-122.7547222,45.2311111,5/15/1974 21:00,aurora,or,us,disk,120,Flying Saucer hovers above car.,1974,5,15
-86.1969444,43.0769444,5/27/1974 12:00,spring lake,mi,us,oval,600,In the spring or early summer of 1974 we saw a dull gray object flying in a straight line over Spring Lake&#44 Michigan at about noon time,1974,5,27
-85.4669444,37.8091667,6/1/1974 0:00,bardstown,ky,us,disk,600,yellowish gold saucer with lights hovering over house,1974,6,1
-73.9461111,41.3838889,6/1/1974 0:00,garrison,ny,us,disk,10,Two 15 year olds see flying disk in the Hudson Valley,1974,6,1
-104.8208333,38.8338889,6/1/1974 12:00,colorado springs,co,us,circle,600,I witnessed a UFO sighting over 30 years ago.  I have told this story for over the years and never knew who to go to until tonight afte,1974,6,1
-72.5988889,41.2794444,6/1/1974 22:30,madison,ct,us,sphere,2700,Event 1) Glowing sphere tracing shoreline and crashed into the water. Event 2) Datona Beach FL.  Flat hourglass shaped  black craft off,1974,6,1
-86.3241667,44.2444444,6/1/1974 23:00,manistee,mi,us,unknown,900,Mother ship emitting Scout Craft&#44 in sight for about 20 minutes,1974,6,1
-81.6783333,29.9916667,6/6/1974 14:00,green cove springs,fl,us,circle,3600,Ever seen an orb&#44 and then the mother ship. I have. Then they gave me something.,1974,6,6
-96.4105556,33.6102778,6/6/1974 23:00,bells,tx,us,triangle,600,Bright triangular pool rack 100 feet away 10 min. 100 foot length silent  radical strobes blue green red hypnotic,1974,6,6
-95.8997222,33.2469444,6/7/1974 21:00,commerce,tx,us,light,120,It was three lights in a triangle. It hovered. It sat there for a couple of minutes. There was two other persons there that saw it. One,1974,6,7
-95.9925,36.1538889,6/8/1974 5:00,tulsa,ok,us,unknown,1500,((HOAX???))  Wedding Cake Ship Sound was heard.,1974,6,8
-80.0852778,42.1291667,6/15/1974 2:45,erie (countryside),pa,us,circle,600,80&#39  diameter silver disc observed from distance of 130&#39 away. Disc was motionless&#44quite 100&#39 off ground. 1974,1974,6,15
-94.6583333,35.13,6/15/1974 12:00,shady point,ok,us,disk,300,it was silent&#44 erratic&#44 low altitude&#44 no lights&#44 daytime&#44 very fast&#44 hovered,1974,6,15
-89.0186111,42.6827778,6/15/1974 12:20,janesville,wi,us,other,300,Mostly sunny afternoon. I was hanging upside down on playground equipment at a parochial school. I saw twinkling objects in the Northwe,1974,6,15
-122.0375,47.4066667,7/1/1974 6:00,maple valley,wa,us,light,7200,I saw a light shining through the clouds that looked like the inside of a reflector telescope&#44 with a dark rounded off square with a da,1974,7,1
-122.4508333,48.9466667,7/1/1974 21:30,lynden,wa,us,light,300,It was early evening yet not yet completely dark on a clear night. In an slightly rural area. Our parents and siblins were already in t,1974,7,1
-80.2333333,26.1272222,7/2/1974 22:00,plantation,fl,us,oval,180,In 1974 my friend and I spotted directly in front of us&#44 a craft approx 75 ft in oval shape hovering about 5 ft. over a funeral home.,1974,7,2
-75.5458333,41.5308333,7/15/1974 5:30,jermyn,pa,us,fireball,5,Fireball moving northwest to southeast,1974,7,15
-85.8241667,38.2855556,7/15/1974 22:30,new albany,in,us,triangle,60,At 2230&#44 my father and I  saw a black triangular shaped object in the sky  with three lights&#44 one being green&#44 the other two were red.,1974,7,15
-104.0186111,30.3077778,7/20/1974 2:00,marfa,tx,us,oval,180,In 1974 I lived in El Paso&#44 I was unemployed&#44 I heard about a tire recaping company I desided pay them a visit&#44 and I ask the manager i,1974,7,20
-73.4383333,41.1952778,8/1/1974 3:00,wilton,ct,us,cylinder,120,I was anywhere from 6 to eight years old when it happened.  I was awakened from bed by  bright lights and low rumbling noise.  I looked,1974,8,1
-74.6833333,39.9719444,8/1/1974 21:30,pemberton,nj,us,circle,900,10 year old local boy sees UFO,1974,8,1
-84.4777778,37.9886111,8/1/1974 22:45,lexington,ky,us,disk,1200,WE WERE CHASED BY A UFO .,1974,8,1
-72.8688889,41.2761111,8/8/1974 3:00,east haven,ct,us,light,60,Police officers observe UFO 2 nights consecutively in  August of 1974,1974,8,8
-81.3397222,41.6661111,8/8/1974 10:00,mentor,oh,us,disk,600,It wasn&#39t just a light&#44 a shape or a &quot;ball&quot;. This thing had the mechanics&#44 details and lights. And of course it was dead silent&#33,1974,8,8
-117.425,47.6588889,8/9/1974 12:00,spokane,wa,us,other,10,I was 11 years old and happened to be in a car with my mom&#44 and we saw a bullet shaped craft with flames comming out of the rear. I hav,1974,8,9
-124.4205556,42.4075,8/15/1974 20:00,gold beach,or,us,circle,30,Ball of light shining a cone of light on the beach.,1974,8,15
-80.1938889,25.7738889,8/15/1974 20:30,miami,fl,us,cigar,300,Close Encounter with a large cigar shaped UFO.,1974,8,15
-73.2052778,41.1669444,8/23/1974 19:30,bridgeport (pond flowing out of remington arms compound),ct,us,triangle,10800,2 girls lose track of time while singing &quot;Octopus&#39s Garden&quot; and taking a short cut through the woods around a pond after seeing a UFO &#33,1974,8,23
-78.7627778,39.6527778,9/1/1974 17:30,cumberland,md,us,light,1800,wife &amp; I were coming down the long curve on US 40 east of cumberland Md. Damned comp wouldnt accept time of 1730&#44 just starting to get,1974,9,1
-86.3902778,35.8455556,9/3/1974 22:00,murfreesboro,tn,us,disk,300,The dish shaped object with 3 portholes visible followed us for approximately 5 miles and then vanished.,1974,9,3
-97.7461111,35.6419444,9/14/1974 3:00,piedmont,ok,us,disk,30,Classic inverted bowl shape with a periscope that extended underneath for observation,1974,9,14
-89.2902778,31.3269444,9/15/1974 20:00,hattiesburg,ms,us,triangle,120,three lights in triangle shape bright flashing and incredible movement,1974,9,15
-90.5775,41.5236111,11/1/1974 20:00,davenport,ia,us,light,600,On this particular clear sky evening in rural Iowa. I was leaving our farm and goin on a date in town. I was 17 at the time and was goi,1974,11,1
-79.7066667,41.4338889,11/1/1974 21:00,oil city,pa,us,unknown,7200,Bright lights in the sky seperated by several miles moving in odd geometric directions--changing course instantly,1974,11,1
-90.075,29.9544444,11/13/1974 22:00,new orleans,la,us,disk,25,Two Saucer Shape U.F.O.&#39s over New Orleans East.,1974,11,13
-83.1766667,35.3136111,12/1/1974 22:30,cullowhee,nc,us,sphere,300,In 1974 I was in Walker dorm on the 7th floor where I went to school at Western Carolina University&#44 in the little mountain village of,1974,12,1
-104.9841667,39.7391667,1/1/1975 20:00,denver,co,us,disk,180,Flying saucer seen by 100 people at drive-in theater in Denver,1975,1,1
-96.3172222,44.0005556,1/15/1975 16:00,pipestone,mn,us,sphere,300,1970&#39s sighting of small UFO that hovered&#44 maneuvered&#44 split into two objects&#44 then rejoined and flew off.,1975,1,15
-121.8875,47.5675,3/1/1975 8:00,fall city,wa,us,unknown,21600,Possible abduction experience.  2 witnesses remember glimpses of inside of craft.This was reported to Peter Davenport late afternoo,1975,3,1
-120.7111111,46.67,3/6/1975 21:00,cowiche,wa,us,disk,600,Beautiful Lights,1975,3,6
-97.5055556,38.8791667,3/15/1975 19:00,new cambria (2 miles se of),ks,us,rectangle,3600,SPRING 1975 - Central Kansas - 2 Aliens,1975,3,15
-117.3497222,33.1580556,3/20/1975 16:00,carlsbad,ca,us,disk,20,3 flying saucers hovering above a flower field in clear daylight,1975,3,20
-94.4152778,33.4597222,4/1/1975 19:30,new boston,tx,us,light,1800,In 1975 while having a cookout for the residents of out apartment complex I witnessed 5 lighs in a V- shaped flying pattern.THey did no,1975,4,1
-95.3630556,29.7630556,4/12/1975 7:00,houston,tx,us,unknown,30,Unusual movements observed of a bright object flying over the Houston skyline.,1975,4,12
-79.9847222,41.9427778,4/18/1975 7:40,waterford,pa,us,disk,1020,I saw what I thought was a small odd looking plane but realized as it got closer it was no plane.,1975,4,18
-84.1688889,39.6894444,4/23/1975 3:45,kettering,oh,us,disk,5400,multi coloured disc landed in kettering ohio,1975,4,23
-77.0472222,38.8047222,5/1/1975 2:40,alexandria,va,us,fireball,2,Pretty sure this was nothing other than a Meteor but it hit probaly a few miles from my house or thats the way it looked at least ..was,1975,5,1
-82.0122222,41.0333333,5/7/1975 2:00,lodi,oh,us,light,135,It was about 2:00AM I was seven years old&#44 I look out the window when I herd a noise that was behind the the house it was a round red l,1975,5,7
-92.2894444,34.7463889,5/15/1975 1:00,little rock,ar,us,cigar,120,I came to a four way stop sign headed east&#44 I looked to my left and noticed something in the sky&#44 low moving fast about in a 15 degree,1975,5,15
-86.4541667,42.1166667,6/1/1975 2:00,benton harbor,mi,us,disk,10800,Glowing disk shaped object hovering in same position for hrs. at times dissapear  then soon reappearing in same place .,1975,6,1
-91.53,41.6611111,6/1/1975 3:00,iowa city,ia,us,disk,600,Silver disk high in blue sky over Iowa 1975,1975,6,1
-71.5166667,42.1397222,6/1/1975 18:00,milford,ma,us,disk,15,saucer shaped craft closely and clearly viewed for 15 seconds before disappearing in a streak at an incredible rate of speed,1975,6,1
-104.9841667,39.7391667,6/1/1975 19:00,denver,co,us,circle,60,two bright round very near each other.,1975,6,1
-78.8702778,42.9658333,6/1/1975 20:30,kenmore,ny,us,oval,45,My UFO most likely same seen in Kenmore NY June 1&#44 1975 listed on your site alot like lake erie ufo. I have since purchased 19 Tremaine,1975,6,1
-75.7119444,39.8466667,6/1/1975 22:00,kennett square,pa,us,other,1800,House sized cube on axis&#44 colored lights pulsing&#44 moving slowly about 25 feet off the ground,1975,6,1
-82.8913889,38.7580556,6/1/1975 22:00,sciotoville,oh,us,other,1200,Large circular cluster of lights&#44 approximately 25-30&#39 wide&#44 approx. 100&#39 above the ground was observed.,1975,6,1
-93.2636111,44.98,6/1/1975 23:00,minneapolis,mn,us,triangle,240,Large trinagular craft spotted over Mpls&#44 MN in 1975,1975,6,1
-73.7566667,42.6525,6/10/1975 2:00,albany,ny,us,cigar,300,Albany NY 1975 varified sighting of multicolored flying object capable of high speed manuvers.,1975,6,10
-97.0011111,30.6552778,6/10/1975 20:00,rockdale,tx,us,other,3600,I cannot swear this was a UFO&#44 but would like to compare our &quot;sighting&quot; with others to see what they think.,1975,6,10
-76.0588889,41.4213889,6/15/1975 12:30,noxen,pa,us,cigar,30,bright silver 75-100 ft long cigar shape&#44 dark horizontal slits hovering silent 50-75 ft alt. over Schooley&#39s Peak Noxen&#44 PA.,1975,6,15
-66.0077778,18.3566667,6/15/1975 20:00,trujillo alto (puerto rico),pr,us,oval,300,I SAW A FLYING OBJECT STANDING IN THE SKY WITH AN OVAL DIAMOND SHAPE AND ORANGE GLOW COLOR,1975,6,15
-79.7627778,34.1952778,6/15/1975 22:00,florence,sc,us,rectangle,2700,first spotted thought was a helicopter with search light. As it came closer we noticed that there was no sound and was traveling extrea,1975,6,15
-71.2766667,42.4905556,6/20/1975 23:30,bedford,ma,us,light,300,saw one flashing light in sky similar to aircraft lights on wings&#44 saw 3 other similar lights flashing&#44 all came together as one&#44 took,1975,6,20
-89.3647222,40.1483333,6/22/1975 9:00,lincoln,il,us,oval,900,light in northeast sky,1975,6,22
-72.9258333,40.9525,6/30/1975 0:00,rocky point,ny,us,light,900,Moving light viewed from a house in Rocky Point.,1975,6,30
-76.3058333,40.0377778,6/30/1975 21:30,lancaster,pa,us,unknown,600,Both my wife and I worked at the Park City Mall&#44 and were just coming home from work on a warm&#44 humid summer night.  We lived in an apa,1975,6,30
-118.0266667,34.0686111,6/30/1975 23:00,el monte,ca,us,other,3,it was a dark winter eve. 2 round disk appeared on the horizon and flew from SW traveling NE very fast no noise. im a pilot,1975,6,30
-72.4602778,41.6313889,7/10/1975 19:00,marlborough,ct,us,disk,1800,UFO sighting of a mother ship over our secluded country farm house.,1975,7,10
-95.4316667,29.1691667,7/15/1975 5:00,angleton,tx,us,sphere,300,Massive spherical object glowing bright orange between Bailey&#39s Prairie&#44 TX and Angleton&#44 TX.,1975,7,15
-88.0197222,44.5191667,7/15/1975 16:00,green bay,wi,us,triangle,15,blacktriangles&#44hoovering or moving very slowly should of dropped out of the sky&#44no sound.no exhaust&#44day time sighting moved very fast.,1975,7,15
-117.8991667,33.9166667,7/15/1975 20:00,brea,ca,us,unknown,1200,A light in the sky which first moved South to North&#44 stopped briefly then moved again West til out of sight.,1975,7,15
-74.5625,40.8838889,7/15/1975 22:00,dover,nj,us,other,7200,07/15/1975  Dover&#44NJ Apprx 12 boomerang shape disks w/red center light hovering 2 hrs.1 larger than others.02/25/05,1975,7,15
-92.7222222,41.7430556,7/15/1975 23:00,grinnell,ia,us,rectangle,1200,Interesting odor case&#44 unique perhaps in the &quot;glob&quot; description emanating from UFO.,1975,7,15
-101.9727778,35.8655556,7/18/1975 19:00,dumas,tx,us,oval,600,Three oval shaped objects in open field.,1975,7,18
-117.425,47.6588889,7/19/1975 23:30,spokane,wa,us,sphere,180,Orange glowing ball (sphere) seen in Spokane sky in the Summer of 1975,1975,7,19
-88.7033333,34.2575,7/20/1975 20:30,tupelo,ms,us,cigar,12,Tupelo man  observes cigar-shaped craft,1975,7,20
-89.335,37.7644444,7/21/1975 0:30,murphysboro,il,us,unknown,30,We had just finished playing a ballgame in Murphysboro&#44 Illinois and began our trip home to Decatur. We were driving through the Shawne,1975,7,21
-78.6388889,35.7719444,7/22/1975 21:00,raleigh,nc,us,unknown,25,((HOAX??))  saw 5or 6 lights circling overhead object  blocked out stars. 500 Lights On Object0: Yes,1975,7,22
-79.9961111,40.4405556,8/1/1975 20:30,pittsburgh (mckees rocks&#44 southwest of),pa,us,fireball,900,We were enjoying the evening sunset&#44 as it glistened off the USX towers downtown Pittsburgh&#44 in a north easterly direction. When we all,1975,8,1
-77.4605556,37.5536111,8/5/1975 18:31,richmond,va,us,egg,300,On August 5&#44 1975&#44 at 6:31 P.M.&#44 while I was riding a bicycle&#44 I stopped&#44 along with my friend to watch a beautiful UFO. It was undergo,1975,8,5
-88.7502778,41.9294444,8/8/1975 22:00,dekalb,il,us,light,10,at 10:00 pm I saw a pin point of light slowly descending into a area were there nothing for miles but cornfields,1975,8,8
-112.0147222,41.5102778,8/15/1975 0:00,brigham city (west of),ut,us,disk,480,Orange glowing Saucer terrorized Cowboy his cowdog and four horses.weeks later a rangefire in spot where saucer last seen.,1975,8,15
-83.3188889,43.0513889,8/15/1975 20:15,lapeer,mi,us,other,180,Helicopter shaped object with twirling red &amp; yellow lights over head&#44 150&#39 above ground and running silent.,1975,8,15
-86.1580556,39.7683333,8/16/1975 21:00,indianapolis,in,us,triangle,120,Triangular object&#44got within 200 feet&#44stopped in mid air&#44took off like a rocket and dissapeared&#44never made any noise.,1975,8,16
-82.2169444,29.4233333,8/20/1975 7:00,orange lake,fl,us,disk,30,a gray disk with a shinny rail  on which a wheel turned,1975,8,20
-76.3580556,39.4336111,8/20/1975 22:00,joppa,md,us,circle,1800,we saw 6 or more small crafts orangey red doing maneuvers for approx.  30 min in maryland,1975,8,20
-116.2997222,45.7616667,8/30/1975 22:00,white bird,id,us,light,1200,It looked somewhat like UFO Pinball in the sky,1975,8,30
-118.6086111,34.4436111,9/1/1975 22:00,valencia,ca,us,oval,900,In Valencia&#44 Ca. the craft I was watching&#44 was watching me.,1975,9,1
-86.4491667,34.4016667,9/4/1975 2:00,union grove,al,us,cigar,1200,Two brothers observe cigar-shaped UFO late at night after work.,1975,9,4
